StopId,Code,Name,StopType,Zone,Ward,AddressNo,Street,SupportDisability,Status,Lng,Lat,Search,Routes,RouteId,RouteVarId
35,BX 01,Bến xe buýt Sài Gòn,Bến xe,Quận 1,Phường Phạm Ngũ Lão,BẾN XE BUÝT SÀI GÒN,Lê Lai,Có,Đang khai thác,106.689362,10.767676,BxbSG BXBSG LL,"03, 04, 102, 109, 120, 13, 140, 18, 19, 20, 27, 28, 34, 36, 39, 52, 61-6, 65, 69, 70-3, 72, 75, 86, 88, 93, D1",3,5
7276,Q1 190,Tôn Thất Tùng,Trụ dừng,Quận 1,Phường Phạm Ngũ Lão,277-279-275Y,Phạm Ngũ Lão,Có,Đang khai thác,106.690941,10.76767,TTT 277-279-275Y PNL,"03, 04, 102, 109, 140, 18, 19, 20, 28, 34, 36, 39, 46, 52, 65, 69, 72, 75, 86, 88, 93",3,5
7277,Q1 191,Nguyễn Thị Nghĩa,Trụ dừng,Quận 1,Phường Phạm Ngũ Lão,187,Phạm Ngũ Lão,Có,Đang khai thác,106.693699,10.768788,NTN 187 PNL,"03, 04, 102, 109, 140, 18, 19, 20, 28, 34, 36, 39, 46, 52, 65, 69, 72, 93, DL01",3,5
7278,Q1 192,Trường Emst Thalmann,Nhà chờ,Quận 1,Phường Phạm Ngũ Lão,Trường Emst Thalmann,Phạm Ngũ Lão,Có,Đang khai thác,106.695587,10.769504,TET TET PNL,"03, 04, 102, 109, 18, 19, 20, 34, 36, 39, 52, 65, 69, 93",3,5
7265,Q1 179,Trạm Trung chuyển trên đường Hàm Nghi,Nhà chờ,Quận 1,Phường Nguyễn Thái Bình,Hàm nghi 5,Hàm Nghi,Có,Đang khai thác,106.700259,10.770911,TTctdHN Hn5 HN,"03, 45, 53, 61-6, D1",3,5
7266,Q1 180,Trạm Trung chuyển trên đường Hàm Nghi,Nhà chờ,Quận 1,Phường Nguyễn Thái Bình,Hàm Nghi 7,Hàm Nghi,Có,Đang khai thác,106.700807,10.770896,TTctdHN HN7 HN,"01, 03, 04, 19, 56, 88",3,5
7693,Q1 1950,Nam Kỳ Khởi Nghĩa,Nhà chờ,Quận 1,Phường Nguyễn Thái Bình,93-95,Hàm Nghi,Có,Đang khai thác,106.701354,10.770875,NKKN 93-95 HN,"01, 03, 04, 19, 88",3,5
1256,Q1 195,Chợ Cũ,Nhà chờ,Quận 1,Phường Nguyễn Thái Bình,89A,Hàm Nghi,,Đang khai thác,106.701998,10.770811,CC 89A HN,"01, 03, 04, 152, 18, 19, 31, 36, 45, 52, 56, 61-6, 75, 86, 88, 93",3,5
7588,Q1 200,Giao lộ Hàm Nghi - Tôn Thất Đạm,Nhà chờ,Quận 1,Phường Nguyễn Thái Bình,81-83-83B,Hàm Nghi,,Đang khai thác,106.703038,10.77078,GlHN-TTD 81-83-83B HN,03,3,5
32,Q1 017,Hồ Tùng Mậu,Nhà chờ,Quận 1,Phường Nguyễn Thái Bình,67,Hàm Nghi,,Đang khai thác,106.704074,10.770722,HTM 67 HN,"01, 03, 120, 19, 20, 45, 56, 61-6, 75, 88, D1, DL01",3,5
31,Q1 024,Bến Bạch Đằng,Nhà chờ,Quận 1,,Bến thủy nội địa Thủ Thiêm,Tôn Đức Thắng,,Đang khai thác,106.706654,10.774094,BBD BtndTT TDT,"01, 03, 19, 45, 53, 56, 61-6, 88, D1, DL01",3,5
34,Q1 057,Công Trường Mê Linh,Nhà chờ,Quận 1,,2,Hai Bà Trưng,,Đang khai thác,106.705822,10.775997,CTML 2 HBT,"01, 03, 19, 45",3,5
42,Q1 058,Nhà Hát Thành Phố,Ô sơn,Quận 1,,74/A2-74/A4,Hai Bà Trưng,,Đang khai thác,106.703559,10.778031,NHTP 74/A2-74/A4 HBT,"03, 19, 45",3,5
44,Q1 059,Bệnh viện Nhi Đồng 2,Nhà chờ,Quận 1,,Đối diện 115Ter,Hai Bà Trưng,,Đang khai thác,106.701536,10.779881,BvND2 Dd115Ter HBT,"03, 19, 45",3,5
39,Q1 060,Bưu Điện Thành Phố,Trụ dừng,Quận 1,,86,Hai Bà Trưng,,Đang khai thác,106.700673,10.780645,BDTP 86 HBT,"03, 19, 45",3,5
41,Q1 061,Sở Công Thương,Nhà chờ,Quận 1,,142,Hai Bà Trưng,,Đang khai thác,106.696526,10.784297,SCT 142 HBT,"03, 31",3,5
43,Q1 062,Công viên Lê Văn Tám,Nhà chờ,Quận 1,,Đối diện 245,Hai Bà Trưng,,Đang khai thác,106.692599,10.787427,CvLVT Dd245 HBT,"03, 31, 36",3,5
46,Q1 063,Nhà thờ Tân Định,Trụ dừng,Quận 1,,298,Hai Bà Trưng,,Đang khai thác,106.690399,10.789215,NtTD 298 HBT,"03, 31, 36",3,5
47,Q1 064,Chợ Tân Định,Trụ dừng,Quận 1,,372-374,Hai Bà Trưng,,Đang khai thác,106.688843,10.790456,CTD 372-374 HBT,"03, 31, 36",3,5
45,QPN 012,Cầu Kiệu,Ô sơn,Quận Phú Nhuận,,28 - 30,Phan Đình Phùng,,Đang khai thác,106.68481,10.79365,CK 28-30 PDP,03,3,5
49,QPN 013,Chợ Phú Nhuận,Ô sơn,Quận Phú Nhuận,,158 - 160,Phan Đình Phùng,,Đang khai thác,106.683018,10.795062,CPN 158-160 PDP,03,3,5
48,QPN 014,Trường Cao đẳng Kinh tế Đối ngoại,Ô sơn,Quận Phú Nhuận,,312 - 314,Phan Đình Phùng,,Đang khai thác,106.680905,10.79795,TCdKtDn 312-314 PDP,03,3,5
50,QPN 001,Ngã tư Phú Nhuận,Trụ dừng,Quận Phú Nhuận,,392,Nguyễn Kiệm,,Đang khai thác,106.680138,10.799713,NtPN 392 NK,"03, 55",3,5
51,QPN 002,Nhà Truyền Thông,Trụ dừng,Quận Phú Nhuận,,466,Nguyễn Kiệm,,Đang khai thác,106.679245,10.802232,NTT 466 NK,"03, 55",3,5
52,QPN 003 ,Ngã ba Hồ Văn Huê,Trụ dừng,Quận Phú Nhuận,,582,Nguyễn Kiệm,,Đang khai thác,106.678759,10.805259,NbHVH 582 NK,"03, 55",3,5
53,QPN 004,Coop Mart Nguyễn Kiệm,Trụ dừng,Quận Phú Nhuận,,668-670,Nguyễn Kiệm,,Đang khai thác,106.678528,10.807077,CMNK 668-670 NK,"03, 55",3,5
54,QPN 005,Chùa Vạn Hạnh,Nhà chờ,Quận Phú Nhuận,,750,Nguyễn Kiệm,,Đang khai thác,106.67856,10.810349,CVH 750 NK,"03, 55",3,5
55,QGV 125,Trường Cao đẳng Hải Quan,Nhà chờ,Quận Gò Vấp,,780A,Nguyễn Kiệm,,Đang khai thác,106.678711,10.812475,TCdHQ 780A NK,"03, 55",3,5
56,QGV 040,Cầu vượt Nguyễn Thái Sơn - Nguyễn Kiệm,Trụ dừng,Quận Gò Vấp,,86 - 86C,Nguyễn Thái Sơn,,Đang khai thác,106.680443,10.816282,CvNTS-NK 86-86C NTS,"03, 07, 103, 148, 55, 59",3,5
57,QGV 042,Ngã ba Phạm Ngũ Lão,Trụ dừng,Quận Gò Vấp,,182,Nguyễn Thái Sơn,,Đang khai thác,106.683147,10.819712,NbPNL 182 NTS,"03, 07, 103, 148, 55, 59",3,5
60,QGV 187 ,Cầu vượt ngã sáu Gò Vấp,Trụ dừng,Quận Gò Vấp,,140-142,Phạm Ngũ Lão ,,Đang khai thác,106.681221,10.824607,CvnsGV 140-142 PNL,"03, 07, 103, 148, 55, 59",3,5
58,QGV 104,Cầu vượt ngã sáu Gò Vấp,Trụ dừng,Quận Gò Vấp,,110-112,Nguyễn Oanh,,Đang khai thác,106.678775,10.828991,CvnsGV 110-112 NO,"03, 59",3,5
62,QGV 106,Ngã tư Phan Văn Trị,Nhà chờ,Quận Gò Vấp,,152,Nguyễn Oanh,,Đang khai thác,106.676699,10.832547,NtPVT 152 NO,"03, 59",3,5
67,QGV 107,Cư xá Lam Sơn,Nhà chờ,Quận Gò Vấp,,214,Nguyễn Oanh,,Đang khai thác,106.67561,10.836114,CxLS 214 NO,"03, 59",3,5
63,QGV 108,Đài Liệt sĩ,Nhà chờ,Quận Gò Vấp,,Đối diện 197 (93),Nguyễn Oanh,,Đang khai thác,106.67583,10.839297,DLs Dd197( NO,"03, 59",3,5
72,QGV 109,Ngã tư An Nhơn,Trụ dừng,Quận Gò Vấp,,388,Nguyễn Oanh,,Đang khai thác,106.676833,10.842268,NtAN 388 NO,"03, 32, 59",3,5
64,QGV 110,Bến Đò,Trụ dừng,Quận Gò Vấp,,538,Nguyễn Oanh,,Đang khai thác,106.678496,10.84691,BD 538 NO,"03, 32, 59",3,5
4754,QGV 111,Cầu An Lộc,Trụ dừng,Quận Gò Vấp,Phường 06,604,Nguyễn Oanh,Có,Đang khai thác,106.678802,10.849117,CAL 604 NO,"03, 32, 59",3,5
73,Q12 032,Nhà hàng Bến Xưa,Trụ dừng,Quận 12,,42,Hà Huy Giáp,,Đang khai thác,106.679285,10.852642,NhBX 42 HHG,"03, 32, 59",3,5
213,Q12 033,Ngã tư Ga,Trụ dừng,Quận 12,,154,Hà Huy Giáp,,Đang khai thác,106.679907,10.857331,NtG 154 HHG,"03, 32, 59",3,5
68,Q12 034,Đình thần Giao Khẩu,Trụ dừng,Quận 12,,332,Hà Huy Giáp,,Đang khai thác,106.680433,10.865217,DtGK 332 HHG,"03, 58",3,5
74,Q12 035,Cây xăng Tài Lộc,Trụ dừng,Quận 12,,408B,Hà Huy Giáp,,Đang khai thác,106.678319,10.86831,CxTL 408B HHG,"03, 58",3,5
69,Q12 036,Vườn kiểng Quang Dũng,Trụ dừng,Quận 12,,452,Hà Huy Giáp,,Đang khai thác,106.676978,10.871371,VkQD 452 HHG,"03, 58",3,5
70,Q12 037,Ga ra Thanh Hậu,Trụ dừng,Quận 12,,508,Hà Huy Giáp,,Đang khai thác,106.677032,10.875454,GrTH 508 HHG,"03, 58",3,5
71,Q12 038,Chợ Thạnh Xuân,Nhà chờ,Quận 12,,Nhà văn hóa P. Thạnh Lộc,Hà Huy Giáp,,Đang khai thác,106.678201,10.878493,CTX NvhPTL HHG,"03, 58",3,5
77,Q12 039,Trường Điện lực 2,Trụ dừng,Quận 12,,554 ,Hà Huy Giáp,,Đang khai thác,106.679188,10.880785,TDl2 554 HHG,"03, 58",3,5
3204,Q12 040,Trường Nguyễn Văn Thệ,Trụ dừng,Quận 12,,628B,Hà Huy Giáp,,Đang khai thác,106.681296,10.884562,TNVT 628B HHG,"03, 58",3,5
3203,Q12 041,Cây xăng Thanh Bình,Trụ dừng,Quận 12,,704,Hà Huy Giáp,,Đang khai thác,106.68305,10.886253,CxTB 704 HHG,"03, 58",3,5
3206,Q12 042,Cầu Ông Dung,Trụ dừng,Quận 12,,1/111,Hà Huy Giáp,,Đang khai thác,106.685185,10.88876,COD 1/111 HHG,"03, 58",3,5
3259,Q12 043,Cầu Phú Long,Trụ dừng,Quận 12,,856,Hà Huy Giáp,,Đang khai thác,106.687031,10.892079,CPL 856 HHG,"03, 58",3,5
3207,Q12T117,Chùa Báo Ấn,Ô sơn,Quận 12,,938,Hà Huy Giáp,,Đang khai thác,106.688619,10.89486,CBA 938 HHG,"03, 58",3,5
3210,Q12 232,Chợ Đường,Ô sơn,Quận 12,,18,Bùi Công Trừng,,Đang khai thác,106.689101,10.897721,CD 18 BCT,"03, 58",3,5
75,BX38,THẠNH LỘC,Bến xe,Quận 12,,"Thửa đất số 413 tờ bản đồ số 04, phường Thạnh Xuân, Quận 12",Thạnh Lộc 52,,Đang khai thác,106.673427,10.89288,"TL Tds413tbds04,pTXQ12 TL52",03,3,5
468,BX43,BÃI HẬU CẦN SỐ 1,Bến xe,Quận Gò Vấp,,BÃI HẬU CẦN SỐ 1,Phan Văn Trị,,Đang khai thác,106.69189453125,10.82361125946045,BHCS1 BHCS1 PVT,"07, 148",7,14
539,QGV 001,Bãi hậu cần số 1,Trụ dừng,Quận Gò Vấp,,Đối diện 439,Phan Văn Trị,,Đang khai thác,106.69195,10.823964,Bhcs1 Dd439 PVT,"07, 148, 36",7,14
540,QGV 048,UBND Phường 5,Trụ dừng,Quận Gò Vấp,,247,Nguyễn Thái Sơn,,Đang khai thác,106.688259,10.825513,UP5 247 NTS,"07, 146, 148",7,14
541,QGV 049,Trường Đại học Công nghiệp,Trụ dừng,Quận Gò Vấp,,145,Nguyễn Thái Sơn,,Đang khai thác,106.685277,10.822779,TDhCn 145 NTS,"07, 148",7,14
543,QGV 050 ,Ngã ba Phạm Ngũ Lão,Trụ dừng,Quận Gò Vấp,,63,Nguyễn Thái Sơn,,Đang khai thác,106.683925,10.821045,NbPNL 63 NTS,"07, 148",7,14
60,QGV 187 ,Cầu vượt ngã sáu Gò Vấp,Trụ dừng,Quận Gò Vấp,,140-142,Phạm Ngũ Lão ,,Đang khai thác,106.681221,10.824607,CvnsGV 140-142 PNL,"03, 07, 103, 148, 55, 59",7,14
219,QGV 121,Cầu vượt ngã sáu Gò Vấp,Trụ dừng,Quận Gò Vấp,,1001,Nguyễn Kiệm,,Đang khai thác,106.678968,10.823738,CvnsGV 1001 NK,"03, 07, 103, 148, 55, 59",7,14
222,QGV 122,Xóm Cháy,Trụ dừng,Quận Gò Vấp,,629B,Nguyễn Kiệm,,Đã hủy,106.678743,10.821894,XC 629B NK,"07, 148, 59",7,14
221,QGV 123,Bệnh Viện 175,Trụ dừng,Quận Gò Vấp,,883-885,Nguyễn Kiệm,,Đang khai thác,106.678727,10.820044,BV175 883-885 NK,"03, 07, 103, 148, 55, 59",7,14
223,QGV 124,Chợ Tân Sơn Nhất,Trụ dừng,Quận Gò Vấp,,79-81,Nguyễn Kiệm,,Đang khai thác,106.678598,10.816772,CTSN 79-81 NK,"03, 07, 103, 148, 55, 59",7,14
224,QPN 034,Đầu công viên Gia Định,Nhà chờ,Quận Phú Nhuận,,Rạp xiếc,Hoàng Minh Giám,,Đang khai thác,106.677681,10.813442,DcvGD Rx HMG,"03, 07, 148, 50, 55, 59",7,14
225,QPN 035,Cuối công viên Gia Định,Nhà chờ,Quận Phú Nhuận,,Đối diện số 5,Hoàng Minh Giám,,Đang khai thác,106.674741,10.809906,CcvGD Dds5 HMG,"03, 07, 148, 50, 55, 59",7,14
226,QPN 053,Đầu Đường Đào Duy Anh,Trụ dừng,Quận Phú Nhuận,,155,Đào Duy Anh,,Đang khai thác,106.674057,10.807978,DDDDA 155 DDA,"03, 07, 55",7,14
228,QPN 054,Cuối Đường Đào Duy Anh,Nhà chờ,Quận Phú Nhuận,,7-9,Đào Duy Anh,,Đang khai thác,106.677177,10.805891,CDDDA 7-9 DDA,"03, 07, 55",7,14
230,QPN 023,Ngã ba Đào Duy Anh,Trụ dừng,Quận Phú Nhuận,,129,Hồ Văn Huê,,Đang khai thác,106.677729,10.804858,NbDDA 129 HVH,"03, 07, 55",7,14
227,QPN 024,Tháp Nước,Trụ dừng,Quận Phú Nhuận,,43B,Hồ Văn Huê,,Đang khai thác,106.676366,10.802434,TN 43B HVH,"03, 07, 55",7,14
229,QPN 025,Trung tâm hội nghị tiệc cưới White Palace,Trụ dừng,Quận Phú Nhuận,,1B,Hồ Văn Huê,,Đang khai thác,106.675025,10.800074,TthntcWP 1B HVH,"03, 07, 55",7,14
545,QPN 026,Nhà thờ Phú Nhuận,Trụ dừng,Quận Phú Nhuận,,223,Trần Huy Liệu,,Đang khai thác,106.677525,10.798646,NtPN 223 THL,07,7,14
549,QPN 027,Công an Quận Phú Nhuận,Trụ dừng,Quận Phú Nhuận,,139,Trần Huy Liệu,,Đang khai thác,106.677702,10.795658,CaQPN 139 THL,07,7,14
550,QPN 028,Ngã tư Nguyễn Văn Trỗi,Trụ dừng,Quận Phú Nhuận,,91 - 93,Trần Huy Liệu,,Đang khai thác,106.677887,10.792667,NtNVT 91-93 THL,07,7,14
552,QPN 029,Bệnh viện An Sinh,Trụ dừng,Quận Phú Nhuận,,25 - 27,Trần Huy Liệu,,Đang khai thác,106.677986,10.791171,BvAS 25-27 THL,07,7,14
554,Q3 094,Lê Văn Sỹ,Trụ dừng,Quận 3,Phường 14,19,Trần Quang Diệu,,Đang khai thác,106.678123,10.788544,LVS 19 TQD,07,7,14
557,Q3 047,Chợ Nguyễn Văn Trỗi,Trụ dừng,Quận 3,Phường 13,217,Lê Văn Sỹ,,Đang khai thác,106.679322,10.786853,CNVT 217 LVS,"07, 28",7,14
559,Q3 035,Trần Quốc Thảo,Nhà chờ,Quận 3,,12,Kỳ Đồng,Có,Đang khai thác,106.682868,10.78456,TQT 12 KD,07,7,14
561,Q3 036,Nhà thờ Dòng chúa Cứu thế,Nhà chờ,Quận 3,,38,Kỳ Đồng,Có,Đang khai thác,106.681061,10.780704,NtDcCt 38 KD,07,7,14
565,Q3 075,Nguyễn Thông,Trụ dừng,Quận 3,,86,Nguyễn Thông,,Đang khai thác,106.679573,10.781328,NT 86 NT,07,7,14
560,Q3 066,Ga Hòa Hưng,Trụ dừng,Quận 3,Phường 09,Đối diện Trụ sở KP3,Nguyễn Phúc Nguyên,,Đang khai thác,106.678383,10.781528,GHH DdTsK NPN,07,7,14
566,Q3 067,Rạch Bùng Binh,Trụ dừng,Quận 3,,Đối diện 186 (167),Nguyễn Phúc Nguyên,,Đang khai thác,106.678888,10.780645,RBB Dd186( NPN,07,7,14
562,Q3 068,Vòng xoay Dân Chủ,Trụ dừng,Quận 3,Phường 10,47 - 49,Nguyễn Phúc Nguyên,,Đang khai thác,106.681038,10.778592,VxDC 47-49 NPN,07,7,14
568,Q10 001,Siêu thị Maximark,Trụ dừng,Quận 10,,54,Đường 3/2,,Đang khai thác,106.680771,10.777162,StM 54 D3/2,"07, 10, 91",7,14
563,Q10 002,Bệnh viện Bình Dân,Trụ dừng,Quận 10,,172,Đường 3/2,,Đang khai thác,106.678947,10.774785,BvBD 172 D3/2,"07, 91",7,14
95,Q10 003,Học viện Hành chính Quốc gia,Nhà chờ,Quận 10,,10,Đường 3/2,,Đang khai thác,106.676951,10.773457,HvHcQg 10 D3/2,"07, 10, 91",7,14
94,Q10 004,Học viện Hành chính Quốc gia,Nhà chờ,Quận 10,,Kế 10A,Đường 3/2,,Đang khai thác,106.675701,10.772661,HvHcQg K10A D3/2,"07, 91",7,14
97,Q10 005,Nhà hát Hòa Bình,Nhà chờ,Quận 10,,240,Đường 3/2,,Đang khai thác,106.674202,10.771712,NhHB 240 D3/2,"07, 91",7,14
96,Q10 006,Nhà thờ Vinh Sơn,Trụ dừng,Quận 10,,270,Đường 3/2,,Đang khai thác,106.67215,10.770521,NtVS 270 D3/2,07,7,14
99,Q10 007,Bệnh viện Nhi Đồng 1,Trụ dừng,Quận 10,,356,Đường 3/2,,Đang khai thác,106.670364,10.769578,BvND1 356 D3/2,07,7,14
564,Q10 075,Học viện Quân y,Trụ dừng,Quận 10,,527,Nguyễn Tri Phương,,Đang khai thác,106.667259,10.766769,HvQy 527 NTP,"07, 59",7,14
567,Q10 076,Chợ Nhật Tảo,Trụ dừng,Quận 10,,475,Nguyễn Tri Phương,,Đang khai thác,106.667664,10.764991,CNT 475 NTP,"07, 59",7,14
570,Q10 077,Trường Hoàng Văn Thụ,Trụ dừng,Quận 10,,399,Nguyễn Tri Phương,,Đang khai thác,106.668015,10.763371,THVT 399 NTP,"07, 59",7,14
571,Q10 078,Đại học kinh tế,Trụ dừng,Quận 10,,279,Nguyễn Tri Phương,,Đang khai thác,106.668488,10.761049,Dhkt 279 NTP,"07, 10, 59",7,14
569,Q5 036,Ngô Gia Tự,Nhà chờ,Quận 5,,500,Ngô Gia Tự,,Đang khai thác,106.668062,10.758801,NGT 500 NGT,"07, 150",7,14
573,Q5 035,Trung tâm giáo dục thường xuyên,Nhà chờ,Quận 5,,546,Ngô Gia Tự,,Đang khai thác,106.667016,10.757331,Ttgdtx 546 NGT,"07, 150",7,14
433,Q5 017,Bệnh viện Phạm Ngọc Thạch,Nhà chờ,Quận 5,,120,Hồng Bàng,,Đang khai thác,106.664511,10.755897,BvPNT 120 HB,"06, 07, 139, 150, 56, 68, 70-3, 91",7,14
434,Q5 018,Hùng Vương Plaza,Nhà chờ,Quận 5,,132,Hồng Bàng,,Đang khai thác,106.661072,10.755196,HVP 132 HB,"06, 07, 08, 10, 139, 150, 56, 62, 68, 91",7,14
436,Q5 019,Bệnh viện Chợ Rẫy,Trụ dừng,Quận 5,,172,Hồng Bàng,,Đang khai thác,106.659501,10.754875,BvCR 172 HB,"06, 07, 08, 139, 150, 56, 62, 68, 91",7,14
397,Q5 013,Rạp Đại Quang,Nhà chờ,Quận 5,,81,Châu Văn Liêm,,Đang khai thác,106.658792,10.752445,RDQ 81 CVL,"05, 07, 08, 45, 56, 62",7,14
137,Q5 014,Bưu điện Quận 5,Ô sơn,Quận 5,,13-15,Châu Văn Liêm,,Đang khai thác,106.658894,10.751381,BdQ5 13-15 CVL,"01, 05, 07, 08, 45, 56, 62",7,14
138,Q5 015,Hải Thượng Lãn Ông,Trụ dừng,Quận 5,,210-212,Hải Thượng Lãn Ông,,Đang khai thác,106.658358,10.750948,HTLO 210-212 HTLO,"01, 05, 07, 25, 39, 47, 56",7,14
139,Q5 102,Chợ Kim Biên,Trụ dừng,Quận 5,,5,Trang Tử,,Đang khai thác,106.655086,10.751128,CKB 5 TT,"01, 05, 07, 25, 39, 47, 56",7,14
8,BX14,Bến xe Chợ Lớn,Bến xe,Quận 5,,GA HKXB CHO LON,Lê Quang Sung,,Đang khai thác,106.6525650024414,10.751253128051758,BxCL GHCL LQS,"01, 05, 06, 07, 09, 150, 23, 47, 56, 62-1, 62-10, 62-7, 62-8, 81, 94",7,14
33,BX 06,Công Trường Mê Linh,Bến xe,Quận 1,,Công trường Mê Linh,Thi Sách,,Đang khai thác,106.705856,10.77679,CTML CtML TS,01,1,1
79,Q1 031,Bến Bạch Đằng,Trụ dừng,Quận 1,,21,Tôn Đức Thắng,,Đang khai thác,106.706359,10.773299,BBD 21 TDT,"01, 03, 120, 19, 45, 53, 56, 61-6, 88, D1, DL01",1,1
76,Q1 020,Cục Hải Quan Thành Phố,Nhà chờ,Quận 1,Phường Bến Nghé,2-4,Hàm Nghi,,Đang khai thác,106.705549,10.770885,CHQTP 2-4 HN,"01, 03, 123, 124, 19, 45, 56, 61-6, 88, D1",1,1
3691,Q1 193,Chợ Cũ,Nhà chờ,Quận 1,Phường Bến Nghé,84,Hàm Nghi,,Đang khai thác,106.703108,10.771006,CC 84 HN,"01, 03, 19, 45, 56, 86, 88",1,1
2028,Q1 194,Trường Cao Thắng,Nhà chờ,Quận 1,Phường Bến Nghé,Trường Cao Thắng,Hàm Nghi,,Đang khai thác,106.701853,10.771043,TCT TCT HN,"01, 03, 102, 19, 20, 34, 38, 39, 45, 56, 75, 86, 88",1,1
4223,Q1 102,Trạm Trung chuyển trên đường Hàm Nghi,Nhà chờ,Quận 1,Phường Bến Thành,Hàm Nghi 4,Hàm Nghi,,Đang khai thác,106.699471,10.771075,TTctdHN HN4 HN,"01, 102, 44, 65, 86",1,1
7564,Q1 196,Bảo tàng Mỹ Thuật,Trụ dừng,Quận 1,Phường Bến Nghé,56,Nguyễn Thái Bình,Có,Đang khai thác,106.699669,10.769251,BtMT 56 NTB,"01, 102, 34, 38, 39, 44, 86",1,1
120,Q1 124,Trường Ernst Thalmann,Nhà chờ,Quận 1,,8,Trần Hưng Đạo,,Đang khai thác,106.695923,10.768772,TET 8 THD,"01, 139, 28, 45, 69",1,1
121,Q1 125,KTX Trần Hưng Đạo,Nhà chờ,Quận 1,,10,Trần Hưng Đạo,,Đang khai thác,106.694695,10.767363,KTHD 10 THD,"01, 139, 152, 45, 56",1,1
122,Q1 126,Rạp Hưng Đạo,Nhà chờ,Quận 1,,112,Trần Hưng Đạo,,Đang khai thác,106.693375,10.765832,RHD 112 THD,"01, 139, 152, 45, 56",1,1
123,Q1 127,Bệnh viện Răng Hàm Mặt,Nhà chờ,Quận 1,,150,Trần Hưng Đạo,,Đang khai thác,106.691696,10.763918,BvRHM 150 THD,"01, 139, 152",1,1
124,Q1 128,Trần Đình Xu,Trụ dừng,Quận 1,,210 - 212,Trần Hưng Đạo,,Đang khai thác,106.690247,10.762262,TDX 210-212 THD,"01, 139, 152",1,1
125,Q1 129,Tổng Cty Samco,Nhà chờ,Quận 1,,262,Trần Hưng Đạo,,Đang khai thác,106.687798,10.759409,TCS 262 THD,"01, 139, 152",1,1
126,Q1 130,Chợ Nanci,Trụ dừng,Quận 1,,290,Trần Hưng Đạo,,Đang khai thác,106.686035,10.757467,CN 290 THD,"01, 139, 152",1,1
127,Q5 083,Nguyễn Biểu,Trụ dừng,Quận 5,,454,Trần Hưng Đạo,,Đang khai thác,106.68283,10.755887,NB 454 THD,01,1,1
128,Q5 084,Trường Cao đẳng Kinh tế Đối ngoại,Nhà chờ,Quận 5,,520,Trần Hưng Đạo,,Đang khai thác,106.681833,10.755623,TCdKtDn 520 THD,01,1,1
129,Q5 085,Trần Bình Trọng,Trụ dừng,Quận 5,,560(564),Trần Hưng Đạo,,Đang khai thác,106.679794,10.755064,TBT 560(564) THD,01,1,1
130,Q5 086,Bệnh viện Chấn thương Chỉnh hình,Nhà chờ,Quận 5,,696,Trần Hưng Đạo,,Đang khai thác,106.677847,10.754537,BvCtCh 696 THD,01,1,1
131,Q5 087,Rạp Đồng Tháp,Trụ dừng,Quận 5,,780,Trần Hưng Đạo,,Đang khai thác,106.675825,10.753984,RDT 780 THD,01,1,1
134,Q5 088,Rạp Đống Đa,Trụ dừng,Quận 5,,882,Trần Hưng Đạo,,Đang khai thác,106.674237,10.753573,RDD 882 THD,01,1,1
132,Q5 089,Đồng Khánh,Trụ dừng,Quận 5,,18,Trần Hưng Đạo,,Đang khai thác,106.67149,10.752983,DK 18 THD,01,1,1
14,Q5 099,Nhà Văn hóa Quận 5,Trụ dừng,Quận 5,,388,Trần Phú,,Đang khai thác,106.668588,10.753025,NVhQ5 388 TP,"01, 59",1,1
136,Q5 090,Ngô Quyền,Biển treo,Quận 5,,212,Trần Hưng Đạo,,Đang khai thác,106.666174,10.752477,NQ 212 THD,01,1,1
133,Q5 091,Tản Đà,Trụ dừng,Quận 5,,274,Trần Hưng Đạo,,Đang khai thác,106.663706,10.752292,TD 274 THD,01,1,1
135,Q5 092,Triệu Quang Phục,Trụ dừng,Quận 5,Phường 11,390,Trần Hưng Đạo,,Đang khai thác,106.660536,10.75206,TQP 390 THD,01,1,1
137,Q5 014,Bưu điện Quận 5,Ô sơn,Quận 5,,13-15,Châu Văn Liêm,,Đang khai thác,106.658894,10.751381,BdQ5 13-15 CVL,"01, 05, 07, 08, 45, 56, 62",1,1
138,Q5 015,Hải Thượng Lãn Ông,Trụ dừng,Quận 5,,210-212,Hải Thượng Lãn Ông,,Đang khai thác,106.658358,10.750948,HTLO 210-212 HTLO,"01, 05, 07, 25, 39, 47, 56",1,1
139,Q5 102,Chợ Kim Biên,Trụ dừng,Quận 5,,5,Trang Tử,,Đang khai thác,106.655086,10.751128,CKB 5 TT,"01, 05, 07, 25, 39, 47, 56",1,1
8,BX14,Bến xe Chợ Lớn,Bến xe,Quận 5,,GA HKXB CHO LON,Lê Quang Sung,,Đang khai thác,106.6525650024414,10.751253128051758,BxCL GHCL LQS,"01, 05, 06, 07, 09, 150, 23, 47, 56, 62-1, 62-10, 62-7, 62-8, 81, 94",1,1
75,BX38,THẠNH LỘC,Bến xe,Quận 12,,"Thửa đất số 413 tờ bản đồ số 04, phường Thạnh Xuân, Quận 12",Thạnh Lộc 52,,Đang khai thác,106.673427,10.89288,"TL Tds413tbds04,pTXQ12 TL52",03,3,6
3255,Q12 235,Chợ Đường,Trụ dừng,Quận 12,,Đối diện 10 (64/4C),Bùi Công Trừng,,Đang khai thác,106.689048,10.897452,CD Dd10( BCT,"03, 58",3,6
3208,Q12 045,Chùa Báo Ấn,Trụ dừng,Quận 12,,921,Hà Huy Giáp,,Đang khai thác,106.688485,10.89485,CBA 921 HHG,"03, 58",3,6
3257,Q12 046,Cầu Phú Long,Trụ dừng,Quận 12,,793 (đối diện 487A),Hà Huy Giáp,,Đang khai thác,106.687229,10.892611,CPL 793(d487A) HHG,"03, 58",3,6
3205,Q12 044,Cầu Ông Dung,Trụ dừng,Quận 12,,307/39,Hà Huy Giáp,,Đang khai thác,106.685105,10.888945,COD 307/39 HHG,"03, 58",3,6
3261,Q12 047,Cây xăng Thanh Bình,Trụ dừng,Quận 12,,22/3,Hà Huy Giáp,,Đang khai thác,106.682879,10.886327,CxTB 22/3 HHG,"03, 58",3,6
3260,Q12 048,Trường Nguyễn Văn Thệ,Trụ dừng,Quận 12,,308/27,Hà Huy Giáp,,Đang khai thác,106.680905,10.88423,TNVT 308/27 HHG,"03, 58",3,6
3262,Q12 049,Trường Điện Lực 2,Trụ dừng,Quận 12,,327/27,Hà Huy Giáp,,Đang khai thác,106.679226,10.881117,TDL2 327/27 HHG,"03, 58",3,6
3263,Q12 050,Chợ Thạnh Xuân,Trụ dừng,Quận 12,,59/2 ,Hà Huy Giáp,,Đang khai thác,106.678265,10.878983,CTX 59/2 HHG,"03, 58",3,6
204,Q12 051,Ga ra Thanh Hậu,Trụ dừng,Quận 12,,79C,Hà Huy Giáp,,Đang khai thác,106.67672,10.875074,GrTH 79C HHG,"03, 58",3,6
205,Q12 052,Vườn kiểng Quang Dũng,Trụ dừng,Quận 12,,59/4,Hà Huy Giáp,,Đang khai thác,106.676785,10.871977,VkQD 59/4 HHG,"03, 58",3,6
206,Q12 053,Cây xăng Tài Lộc,Ô sơn,Quận 12,,331,Hà Huy Giáp,,Đang khai thác,106.678233,10.868015,CxTL 331 HHG,"03, 58",3,6
207,Q12 054,Đình thần Giao Khẩu,Trụ dừng,Quận 12,,297,Hà Huy Giáp,,Đang khai thác,106.680341,10.864886,DtGK 297 HHG,"03, 58",3,6
208,Q12 055,Ngã tư Ga,Trụ dừng,Quận 12,,141-143A,Hà Huy Giáp,,Đang khai thác,106.679649,10.857984,NtG 141-143A HHG,"03, 32, 59",3,6
211,Q12 056,Nhà hàng Bến Xưa,Trụ dừng,Quận 12,,205,Hà Huy Giáp,,Đang khai thác,106.679006,10.853474,NhBX 205 HHG,"03, 32, 59",3,6
209,QGV 112,Cầu An Lộc,Trụ dừng,Quận Gò Vấp,,523-525,Nguyễn Oanh,,Đang khai thác,106.678539,10.848838,CAL 523-525 NO,"03, 32, 59",3,6
210,QGV 113,Bến Đò,Trụ dừng,Quận Gò Vấp,,451,Nguyễn Oanh,,Đang khai thác,106.67826,10.847015,BD 451 NO,"03, 32, 59",3,6
212,QGV 114,Bưu điện An Nhơn,Trụ dừng,Quận Gò Vấp,,357,Nguyễn Oanh,,Đang khai thác,106.677214,10.843975,BdAN 357 NO,"03, 32, 59",3,6
214,QGV 115,Ngã tư An Nhơn,Trụ dừng,Quận Gò Vấp,,257,Nguyễn Oanh,,Đang khai thác,106.676313,10.841436,NtAN 257 NO,"03, 59",3,6
215,QGV 116,Đài Liệt sĩ,Trụ dừng,Quận Gò Vấp,,197,Nguyễn Oanh,,Đang khai thác,106.675707,10.839518,DLs 197 NO,"03, 59",3,6
216,QGV 117,Trường Vinhempic,Nhà chờ,Quận Gò Vấp,,189 (đối diện 234),Nguyễn Oanh,,Đang khai thác,106.675395,10.836978,TV 189(d234) NO,"03, 59",3,6
218,QGV 118,Cư xá Lam Sơn,Nhà chờ,Quận Gò Vấp,,189 (đối diện A4),Nguyễn Oanh,,Đang khai thác,106.675535,10.834939,CxLS 189(dA NO,"03, 59",3,6
217,QGV 119,Ngã tư Phan Văn Trị,Trụ dừng,Quận Gò Vấp,,93 (2A),Nguyễn Oanh,,Đang khai thác,106.676919,10.83163,NtPVT 93( NO,"03, 59",3,6
220,QGV 120,Cầu vượt ngã sáu Gò Vấp,Trụ dừng,Quận Gò Vấp,,27-29,Nguyễn Oanh,,Đang khai thác,106.678839,10.828532,CvnsGV 27-29 NO,"03, 59",3,6
219,QGV 121,Cầu vượt ngã sáu Gò Vấp,Trụ dừng,Quận Gò Vấp,,1001,Nguyễn Kiệm,,Đang khai thác,106.678968,10.823738,CvnsGV 1001 NK,"03, 07, 103, 148, 55, 59",3,6
221,QGV 123,Bệnh Viện 175,Trụ dừng,Quận Gò Vấp,,883-885,Nguyễn Kiệm,,Đang khai thác,106.678727,10.820044,BV175 883-885 NK,"03, 07, 103, 148, 55, 59",3,6
223,QGV 124,Chợ Tân Sơn Nhất,Trụ dừng,Quận Gò Vấp,,79-81,Nguyễn Kiệm,,Đang khai thác,106.678598,10.816772,CTSN 79-81 NK,"03, 07, 103, 148, 55, 59",3,6
224,QPN 034,Đầu công viên Gia Định,Nhà chờ,Quận Phú Nhuận,,Rạp xiếc,Hoàng Minh Giám,,Đang khai thác,106.677681,10.813442,DcvGD Rx HMG,"03, 07, 148, 50, 55, 59",3,6
225,QPN 035,Cuối công viên Gia Định,Nhà chờ,Quận Phú Nhuận,,Đối diện số 5,Hoàng Minh Giám,,Đang khai thác,106.674741,10.809906,CcvGD Dds5 HMG,"03, 07, 148, 50, 55, 59",3,6
226,QPN 053,Đầu Đường Đào Duy Anh,Trụ dừng,Quận Phú Nhuận,,155,Đào Duy Anh,,Đang khai thác,106.674057,10.807978,DDDDA 155 DDA,"03, 07, 55",3,6
228,QPN 054,Cuối Đường Đào Duy Anh,Nhà chờ,Quận Phú Nhuận,,7-9,Đào Duy Anh,,Đang khai thác,106.677177,10.805891,CDDDA 7-9 DDA,"03, 07, 55",3,6
230,QPN 023,Ngã ba Đào Duy Anh,Trụ dừng,Quận Phú Nhuận,,129,Hồ Văn Huê,,Đang khai thác,106.677729,10.804858,NbDDA 129 HVH,"03, 07, 55",3,6
227,QPN 024,Tháp Nước,Trụ dừng,Quận Phú Nhuận,,43B,Hồ Văn Huê,,Đang khai thác,106.676366,10.802434,TN 43B HVH,"03, 07, 55",3,6
229,QPN 025,Trung tâm hội nghị tiệc cưới White Palace,Trụ dừng,Quận Phú Nhuận,,1B,Hồ Văn Huê,,Đang khai thác,106.675025,10.800074,TthntcWP 1B HVH,"03, 07, 55",3,6
232,QPN 009,Ngã tư Phú Nhuận,Trụ dừng,Quận Phú Nhuận,,59,Hoàng Văn Thụ,,Đang khai thác,106.679354,10.799088,NtPN 59 HVT,"03, 08, 104, 55, 64",3,6
4755,QPN 057,Trường Cao đẳng Kinh tế Đối ngoại,Ô sơn,Quận Phú Nhuận,Phường 01,335,Phan Đình Phùng,Có,Đang khai thác,106.680567,10.798345,TCdKtDn 335 PDP,03,3,6
4756,QPN 058,Chợ Phú Nhuận,Ô sơn,Quận Phú Nhuận,Phường 01,175-177,Phan Đình Phùng,Có,Đang khai thác,106.682605,10.795194,CPN 175-177 PDP,03,3,6
4757,QPN 059,Cầu Kiệu,Ô sơn,Quận Phú Nhuận,Phường 01,55,Phan Đình Phùng,Có,Đang khai thác,106.685277,10.793081,CK 55 PDP,03,3,6
231,Q3 029,Trần Quang Khải,Trụ dừng,Quận 3,Phường 08,423 A,Hai Bà Trưng,,Đang khai thác,106.68795,10.790939,TQK 423A HBT,03,3,6
234,Q3 030,Chợ Tân Định,Trụ dừng,Quận 3,,295,Hai Bà Trưng,,Đang khai thác,106.690445,10.788972,CTD 295 HBT,"03, 31, 36",3,6
233,Q3 031,Công viên Lê Văn Tám,Trụ dừng,Quận 3,Phường 06,243,Hai Bà Trưng,,Đang khai thác,106.692653,10.787174,CvLVT 243 HBT,"03, 18, 31",3,6
235,Q3 032,Trần Cao Vân,Trụ dừng,Quận 3,,157,Hai Bà Trưng,,Đang khai thác,106.696625,10.784023,TCV 157 HBT,"03, 18",3,6
236,Q1 065,Lê Duẩn,Nhà chờ,Quận 1,Phường Bến Nghé,Đối diện Lãnh sự quán Pháp,Hai Bà Trưng,,Đang khai thác,106.69902,10.78191,LD DdLsqP HBT,03,3,6
237,Q1 066,Bệnh viện Nhi Đồng 2,Nhà chờ,Quận 1,,Kế 115,Hai Bà Trưng,,Đang khai thác,106.701744,10.779385,BvND2 K115 HBT,"03, 19, 45",3,6
238,Q1 067,Nhà Hát Thành Phố,Trụ dừng,Quận 1,,101,Hai Bà Trưng,,Đang khai thác,106.70351,10.777873,NHTP 101 HBT,"03, 19, 45",3,6
239,Q1 068,Công Trường Mê Linh,Trụ dừng,Quận 1,,Đối diện 2,Hai Bà Trưng,,Đang khai thác,106.705635,10.775976,CTML Dd2 HBT,"03, 19, 45",3,6
79,Q1 031,Bến Bạch Đằng,Trụ dừng,Quận 1,,21,Tôn Đức Thắng,,Đang khai thác,106.706359,10.773299,BBD 21 TDT,"01, 03, 120, 19, 45, 53, 56, 61-6, 88, D1, DL01",3,6
76,Q1 020,Cục Hải Quan Thành Phố,Nhà chờ,Quận 1,Phường Bến Nghé,2-4,Hàm Nghi,,Đang khai thác,106.705549,10.770885,CHQTP 2-4 HN,"01, 03, 123, 124, 19, 45, 56, 61-6, 88, D1",3,6
3691,Q1 193,Chợ Cũ,Nhà chờ,Quận 1,Phường Bến Nghé,84,Hàm Nghi,,Đang khai thác,106.703108,10.771006,CC 84 HN,"01, 03, 19, 45, 56, 86, 88",3,6
2028,Q1 194,Trường Cao Thắng,Nhà chờ,Quận 1,Phường Bến Nghé,Trường Cao Thắng,Hàm Nghi,,Đang khai thác,106.701853,10.771043,TCT TCT HN,"01, 03, 102, 19, 20, 34, 38, 39, 45, 56, 75, 86, 88",3,6
7270,Q1 184,Trạm Trung chuyển trên đường Hàm Nghi,Nhà chờ,Quận 1,Phường Bến Thành,Hàm Nghi 6,Hàm Nghi,Có,Đang khai thác,106.699938,10.771149,TTctdHN HN6 HN,"03, 53, 61-6, D1",3,6
7269,Q1 183,Trạm Trung chuyển trên đường Hàm Nghi,Nhà chờ,Quận 1,Phường Bến Thành,Hàm Nghi 8,Hàm Nghi,Có,Đang khai thác,106.699492,10.77117,TTctdHN HN8 HN,"03, 19, 56, 88",3,6
7273,Q1 187,Khách sạn New World,Ô sơn,Quận 1,Phường Bến Thành,Đối diện cây xanh số 105,Lê Lai,Có,Đang khai thác,106.695946,10.770964,KsNW Ddcxs105 LL,"03, 04, 102, 109, 18, 19, 20, 34, 36, 39, 52, 75, 86, 88, 93",3,6
7274,Q1 188,Nguyễn Thị Nghĩa,Trụ dừng,Quận 1,Phường Bến Thành,94-96,Lê Lai,Có,Đang khai thác,106.693495,10.769952,NTN 94-96 LL,"03, 04, 102, 109, 140, 18, 19, 20, 34, 36, 39, 52, 53, 69, 72, 75, 86, 88, 93",3,6
7275,Q1 189,Tôn Thất Tùng,Trụ dừng,Quận 1,Phường Bến Thành,202-204,Lê Lai,Có,Đang khai thác,106.690469,10.768761,TTT 202-204 LL,"03, 04, 102, 109, 140, 18, 19, 20, 34, 36, 39, 52, 53, 69, 72, 75, 86, 88, 93",3,6
35,BX 01,Bến xe buýt Sài Gòn,Bến xe,Quận 1,Phường Phạm Ngũ Lão,BẾN XE BUÝT SÀI GÒN,Lê Lai,Có,Đang khai thác,106.689362,10.767676,BxbSG BXBSG LL,"03, 04, 102, 109, 120, 13, 140, 18, 19, 20, 27, 28, 34, 36, 39, 52, 61-6, 65, 69, 70-3, 72, 75, 86, 88, 93, D1",3,6
8,BX14,Bến xe Chợ Lớn,Bến xe,Quận 5,,GA HKXB CHO LON,Lê Quang Sung,,Đang khai thác,106.6525650024414,10.751253128051758,BxCL GHCL LQS,"01, 05, 06, 07, 09, 150, 23, 47, 56, 62-1, 62-10, 62-7, 62-8, 81, 94",7,13
1,Q6 095,Chu Văn An,Trụ dừng,Quận 6,,27,Tháp Mười,,Đang khai thác,106.652554,10.750232,CVA 27 TM,"01, 07, 10, 150, 25",7,13
2,Q5 016,Chợ Kim Biên,Trụ dừng,Quận 5,,11-12,Hải Thượng Lãn Ông,,Đang khai thác,106.655075,10.750732,CKB 11-12 HTLO,"01, 05, 07, 25, 39, 47, 56",7,13
3,Q5 011,Bưu điện Quận 5,Ô sơn,Quận 5,,14-16,Châu Văn Liêm,,Đang khai thác,106.659203,10.751368,BdQ5 14-16 CVL,"01, 05, 07, 08, 45, 56, 62",7,13
5,Q5 012,Rạp Đại Quang,Nhà chờ,Quận 5,,68,Châu Văn Liêm,,Đang khai thác,106.658937,10.752566,RDQ 68 CVL,"01, 05, 07, 08, 10, 45, 56, 62",7,13
437,Q5 025,Bệnh viện Chợ Rẫy,Trụ dừng,Quận 5,,357-359,Hồng Bàng,,Đang khai thác,106.659232,10.754553,BvCR 357-359 HB,"06, 07, 08, 139, 150, 56, 62, 68",7,13
439,Q5 026,Đại học Y Dược,Nhà chờ,Quận 5,,217,Hồng Bàng,,Đang khai thác,106.663191,10.75536,DhYD 217 HB,"06, 07, 10, 139, 150, 56, 68",7,13
440,Q5 027,Bệnh viện Đại học Y Dược,Nhà chờ,Quận 5,,215,Hồng Bàng,,Đang khai thác,106.664683,10.755671,BvDhYD 215 HB,"06, 07, 139, 150, 56, 68, 70-3",7,13
432,Q5 068,Công viên Văn Lang,Trụ dừng,Quận 5,,132A,Nguyễn Tri Phương,,Đang khai thác,106.669613,10.757151,CvVL 132A NTP,"06, 07, 139, 150, 56, 59, 68",7,13
441,Q5 069,Trường Trần Khai Nguyên,Ô sơn,Quận 5,,138G-138F,Nguyễn Tri Phương,,Đang khai thác,106.66928,10.758706,TTKN 138G-138F NTP,"07, 150, 59",7,13
442,Q10 071,Đại học Kinh tế,Trụ dừng,Quận 10,,234-236,Nguyễn Tri Phương,,Đang khai thác,106.668564,10.761386,DhKt 234-236 NTP,"07, 10, 59",7,13
444,Q10 072,Trường Hoàng Văn Thụ,Nhà chờ,Quận 10,,336,Nguyễn Tri Phương,,Đang khai thác,106.668213,10.763073,THVT 336 NTP,"07, 59",7,13
443,Q10 073,Chợ Nhật Tảo,Trụ dừng,Quận 10,,426,Nguyễn Tri Phương,,Đang khai thác,106.667702,10.765397,CNT 426 NTP,"07, 59",7,13
446,Q10 074,Học viện Quân y,Trụ dừng,Quận 10,,476,Nguyễn Tri Phương,,Đang khai thác,106.667313,10.767052,HvQy 476 NTP,"07, 59",7,13
158,Q10 011,Bệnh viện Nhi Đồng 1,Nhà chờ,Quận 10,,Đối diện 350,Đường 3/2,,Đang khai thác,106.670609,10.769518,BvND1 Dd350 D3/2,07,7,13
160,Q10 012,Nhà thờ Vinh Sơn,Trụ dừng,Quận 10,,273-275,Đường 3/2,,Đang khai thác,106.672166,10.770269,NtVS 273-275 D3/2,07,7,13
159,Q10 013,Nhà hát Hòa Bình,Trụ dừng,Quận 10,,183A-183B,Đường 3/2,,Đang khai thác,106.674805,10.771855,NhHB 183A-183B D3/2,07,7,13
162,Q10 014,Học viện Hành chính Quốc gia,Trụ dừng,Quận 10,,113,Đường 3/2,,Đang khai thác,106.677015,10.77323,HvHcQg 113 D3/2,07,7,13
445,Q10 015,Bệnh viện Bình Dân,Trụ dừng,Quận 10,,51,Đường 3/2,,Đang khai thác,106.67885,10.774421,BvBD 51 D3/2,07,7,13
448,Q10 016,Siêu thị Maximark,Nhà chờ,Quận 10,,3,Đường 3/2,,Đang khai thác,106.68099,10.776977,StM 3 D3/2,07,7,13
447,Q3 033,Nhà thờ Dòng chúa Cứu thế,Trụ dừng,Quận 3,,25,Kỳ Đồng,,Đang khai thác,106.681305,10.780805,NtDcCt 25 KD,07,7,13
451,Q3 034,Trần Quốc Thảo,Trụ dừng,Quận 3,,5,Kỳ Đồng,,Đang khai thác,106.683022,10.784504,TQT 5 KD,07,7,13
449,Q3 042,Chợ Nguyễn Văn Trỗi,Trụ dừng,Quận 3,Phường 14,332 - 334,Lê Văn Sỹ,,Đang khai thác,106.679535,10.787041,CNVT 332-334 LVS,"07, 28",7,13
453,Q3 093,Trần Quang Diệu,Trụ dừng,Quận 3,Phường 14,24 - 26,Trần Quang Diệu,,Đang khai thác,106.678319,10.788375,TQD 24-26 TQD,07,7,13
450,QPN 030,Bệnh viện An Sinh,Trụ dừng,Quận Phú Nhuận,,8,Trần Huy Liệu,,Đang khai thác,106.678123,10.791023,BvAS 8 THL,07,7,13
452,QPN 031,Ngã Tư Nguyễn Văn Trỗi,Trụ dừng,Quận Phú Nhuận,,60,Trần Huy Liệu,,Đang khai thác,106.677992,10.793028,NTNVT 60 THL,07,7,13
252,QPN 049,Trung tâm văn hóa Quận Phú Nhuận,Trụ dừng,Quận Phú Nhuận,,68,Nguyễn Văn Trỗi,,Đang khai thác,106.676093,10.795421,TtvhQPN 68 NVT,"04, 07, 109, 152",7,13
253,QPN 050,Cổng xe lửa,Trụ dừng,Quận Phú Nhuận,,104,Nguyễn Văn Trỗi,,Đang khai thác,106.673797,10.79677,Cxl 104 NVT,"04, 07, 109, 152",7,13
254,QPN 051,Bệnh viện Quận Phú Nhuận,Trụ dừng,Quận Phú Nhuận,,142,Nguyễn Văn Trỗi,,Đang khai thác,106.670793,10.798525,BvQPN 142 NVT,"04, 07, 109, 152",7,13
255,QPN 052 ,Cây xăng Quân khu 7,Nhà chờ,Quận Phú Nhuận,,180,Nguyễn Văn Trỗi,,Đang khai thác,106.66891,10.799642,CxQk7 180 NVT,"04, 07, 109, 152",7,13
256,QTB 099,Cổng trước SVĐ Quân Khu 7,Nhà chờ,Quận Tân Bình,,A2 (Sân vận động Quân khu 7),Phan Đình Giót,,Đang khai thác,106.66678,10.800848,CtSQK7 A(vdQk7) PDG,"04, 07, 08, 104, 109, 152, 64",7,13
455,QTB 101,Rạp Tân Sơn Nhất,Nhà chờ,Quận Tân Bình,,2B (Hông sân vận động Quân Khu 7),Phổ Quang,,Đang khai thác,106.665924,10.80244,RTSN 2B(svdQK7) PQ,"07, 148, 50, 59",7,13
457,QTB 102,Bãi xe buýt Phổ Quang,Trụ dừng,Quận Tân Bình,,66 (Công ty Xe khách Sài Gòn),Phổ Quang,,Đang khai thác,106.6667,10.805417,BxbPQ 66(tXkSG PQ,"07, 148, 50, 59",7,13
454,QTB 103,Cây xăng Quân đội,Trụ dừng,Quận Tân Bình,,96-100,Phổ Quang,,Đang khai thác,106.668495,10.807221,CxQd 96-100 PQ,"07, 148, 50, 59",7,13
456,QPN 033,Trường Đại học Kỹ thuật Công nghệ,Trụ dừng,Quận Phú Nhuận,,140,Phổ Quang,,Đang khai thác,106.672236,10.808204,TDhKtCn 140 PQ,"07, 148, 50, 59",7,13
459,QPN 036,Cuối công viên Gia Định,Nhà chờ,Quận Phú Nhuận,,7,Hoàng Minh Giám,,Đang khai thác,106.674929,10.809727,CcvGD 7 HMG,"07, 148, 50, 59",7,13
458,QPN 037,Ngã ba Đặng Văn Sâm,Nhà chờ,Quận Phú Nhuận,,Ngã ba Đặng Văn Sâm,Hoàng Minh Giám,,Đang khai thác,106.676399,10.811382,NbDVS NbDVS HMG,"07, 148, 50, 59",7,13
461,QPN 038,Đầu công viên Gia Định,Nhà chờ,Quận Phú Nhuận,,Đối diện Rạp xiếc,Hoàng Minh Giám,,Đang khai thác,106.677949,10.813231,DcvGD DdRx HMG,"07, 148, 50, 59",7,13
56,QGV 040,Cầu vượt Nguyễn Thái Sơn - Nguyễn Kiệm,Trụ dừng,Quận Gò Vấp,,86 - 86C,Nguyễn Thái Sơn,,Đang khai thác,106.680443,10.816282,CvNTS-NK 86-86C NTS,"03, 07, 103, 148, 55, 59",7,13
57,QGV 042,Ngã ba Phạm Ngũ Lão,Trụ dừng,Quận Gò Vấp,,182,Nguyễn Thái Sơn,,Đang khai thác,106.683147,10.819712,NbPNL 182 NTS,"03, 07, 103, 148, 55, 59",7,13
460,QGV 043,Ngã ba Phạm Ngũ Lão,Trụ dừng,Quận Gò Vấp,,246 ,Nguyễn Thái Sơn,,Đang khai thác,106.68407,10.820834,NbPNL 246 NTS,"07, 148",7,13
463,QGV 044,Trường Đại học Công nghiệp,Trụ dừng,Quận Gò Vấp,,320,Nguyễn Thái Sơn,,Đang khai thác,106.685636,10.822789,TDhCn 320 NTS,"07, 148",7,13
462,QGV 045,UBND Phường 5,Trụ dừng,Quận Gò Vấp,,396,Nguyễn Thái Sơn,,Đang khai thác,106.687975,10.825134,UP5 396 NTS,"07, 146, 148",7,13
468,BX43,BÃI HẬU CẦN SỐ 1,Bến xe,Quận Gò Vấp,,BÃI HẬU CẦN SỐ 1,Phan Văn Trị,,Đang khai thác,106.69189453125,10.82361125946045,BHCS1 BHCS1 PVT,"07, 148",7,13
35,BX 01,Bến xe buýt Sài Gòn,Bến xe,Quận 1,Phường Phạm Ngũ Lão,BẾN XE BUÝT SÀI GÒN,Lê Lai,Có,Đang khai thác,106.689362,10.767676,BxbSG BXBSG LL,"03, 04, 102, 109, 120, 13, 140, 18, 19, 20, 27, 28, 34, 36, 39, 52, 61-6, 65, 69, 70-3, 72, 75, 86, 88, 93, D1",4,7
7276,Q1 190,Tôn Thất Tùng,Trụ dừng,Quận 1,Phường Phạm Ngũ Lão,277-279-275Y,Phạm Ngũ Lão,Có,Đang khai thác,106.690941,10.76767,TTT 277-279-275Y PNL,"03, 04, 102, 109, 140, 18, 19, 20, 28, 34, 36, 39, 46, 52, 65, 69, 72, 75, 86, 88, 93",4,7
7277,Q1 191,Nguyễn Thị Nghĩa,Trụ dừng,Quận 1,Phường Phạm Ngũ Lão,187,Phạm Ngũ Lão,Có,Đang khai thác,106.693699,10.768788,NTN 187 PNL,"03, 04, 102, 109, 140, 18, 19, 20, 28, 34, 36, 39, 46, 52, 65, 69, 72, 93, DL01",4,7
7278,Q1 192,Trường Emst Thalmann,Nhà chờ,Quận 1,Phường Phạm Ngũ Lão,Trường Emst Thalmann,Phạm Ngũ Lão,Có,Đang khai thác,106.695587,10.769504,TET TET PNL,"03, 04, 102, 109, 18, 19, 20, 34, 36, 39, 52, 65, 69, 93",4,7
7266,Q1 180,Trạm Trung chuyển trên đường Hàm Nghi,Nhà chờ,Quận 1,Phường Nguyễn Thái Bình,Hàm Nghi 7,Hàm Nghi,Có,Đang khai thác,106.700807,10.770896,TTctdHN HN7 HN,"01, 03, 04, 19, 56, 88",4,7
7693,Q1 1950,Nam Kỳ Khởi Nghĩa,Nhà chờ,Quận 1,Phường Nguyễn Thái Bình,93-95,Hàm Nghi,Có,Đang khai thác,106.701354,10.770875,NKKN 93-95 HN,"01, 03, 04, 19, 88",4,7
1256,Q1 195,Chợ Cũ,Nhà chờ,Quận 1,Phường Nguyễn Thái Bình,89A,Hàm Nghi,,Đang khai thác,106.701998,10.770811,CC 89A HN,"01, 03, 04, 152, 18, 19, 31, 36, 45, 52, 56, 61-6, 75, 86, 88, 93",4,7
4271,Q1 078,"Đền Thờ Ấn Giáo, Pasteur",Nhà chờ,Quận 1,,Đền Thờ Ấn Giáo,Pasteur,,Đang khai thác,106.70139,10.773595,DTAGP DTAG P,"04, 109, 152, 18, 31, 36, 52, 93",4,7
2724,Q1 079,Lê Thánh Tôn,Trụ dừng,Quận 1,,144,Pasteur,,Đang khai thác,106.700768,10.775088,LTT 144 P,"04, 109, 152, 18, 31, 36, 52, 93",4,7
4272,Q1 080,Lý Tự Trọng,Trụ dừng,Quận 1,,158,Pasteur,,Đang khai thác,106.699657,10.777089,LTT 158 P,"04, 109, 152, 18, 31, 36, 52, 93",4,7
4273,Q1 081,Lê Duẫn,Trụ dừng,Quận 1,,178,Pasteur,,Đang khai thác,106.698333,10.778307999999999,LD 178 P,"04, 109, 120, 152, 18, 31, 36, 52, 93",4,7
4274,Q1 082,Nguyễn Thị Minh Khai,Nhà chờ,Quận 1,,184,Pasteur,,Đang khai thác,106.696659,10.779782,NTMK 184 P,"04, 109, 152, 31, 93",4,7
243,Q3 082,Đại học Kiến Trúc,Nhà chờ,Quận 3,Phường 06,194 D,Pasteur,Có,Đang khai thác,106.694579,10.781804,DhKT 194D P,"04, 109, 152, 93",4,7
244,Q3 083,Điện Biên Phủ,Nhà chờ,Quận 3,Phường 06,214,Pasteur,Có,Đang khai thác,106.692749,10.783419,DBP 214 P,"04, 109, 152, 93",4,7
245,Q3 084,Võ Thị Sáu,Nhà chờ,Quận 3,,232,Pasteur,Có,Đang khai thác,106.691145,10.784924,VTS 232 P,"04, 109, 152",4,7
246,Q3 101,Nhà thiếu nhi thành phố,Nhà chờ,Quận 3,,Đối diện 153 A-B (ngã 4 NKKN),Võ Thị Sáu,,Đang khai thác,106.689613,10.785583,Ntntp Dd153A(4N VTS,"04, 109, 152, 30, 91",4,7
247,Q3 048,Viện Pasteur,Nhà chờ,Quận 3,,252 (Đối diện 175),Nam Kỳ Khởi Nghĩa,,Đang khai thác,106.688683,10.785577,VP 252(d175) NKKN,"04, 109, 152",4,7
248,Q3 049,Trần Quốc Toản,Trụ dừng,Quận 3,Phường 08,260A,Nam Kỳ Khởi Nghĩa,,Đang khai thác,106.687133,10.787047,TQT 260A NKKN,"04, 109, 152",4,7
250,Q3 050,Lý Chính Thắng,Trụ dừng,Quận 3,,288 B7,Nam Kỳ Khởi Nghĩa,,Đang khai thác,106.684746,10.789245,LCT 288B NKKN,"04, 109, 152",4,7
249,Q3 051,Chùa Vĩnh Nghiêm,Trụ dừng,Quận 3,,382E,Nam Kỳ Khởi Nghĩa,,Đang khai thác,106.683125,10.790694,CVN 382E NKKN,"04, 109, 152",4,7
251,QPN 048,Ngã tư Trần Huy Liệu,Trụ dừng,Quận Phú Nhuận,,40,Nguyễn Văn Trỗi,,Đang khai thác,106.679236,10.793555,NtTHL 40 NVT,"04, 109, 152",4,7
252,QPN 049,Trung tâm văn hóa Quận Phú Nhuận,Trụ dừng,Quận Phú Nhuận,,68,Nguyễn Văn Trỗi,,Đang khai thác,106.676093,10.795421,TtvhQPN 68 NVT,"04, 07, 109, 152",4,7
253,QPN 050,Cổng xe lửa,Trụ dừng,Quận Phú Nhuận,,104,Nguyễn Văn Trỗi,,Đang khai thác,106.673797,10.79677,Cxl 104 NVT,"04, 07, 109, 152",4,7
254,QPN 051,Bệnh viện Quận Phú Nhuận,Trụ dừng,Quận Phú Nhuận,,142,Nguyễn Văn Trỗi,,Đang khai thác,106.670793,10.798525,BvQPN 142 NVT,"04, 07, 109, 152",4,7
255,QPN 052 ,Cây xăng Quân khu 7,Nhà chờ,Quận Phú Nhuận,,180,Nguyễn Văn Trỗi,,Đang khai thác,106.66891,10.799642,CxQk7 180 NVT,"04, 07, 109, 152",4,7
256,QTB 099,Cổng trước SVĐ Quân Khu 7,Nhà chờ,Quận Tân Bình,,A2 (Sân vận động Quân khu 7),Phan Đình Giót,,Đang khai thác,106.66678,10.800848,CtSQK7 A(vdQk7) PDG,"04, 07, 08, 104, 109, 152, 64",4,7
257,QTB 108,Công viên Hoàng Văn Thụ,Nhà chờ,Quận Tân Bình,,Công viên Hoàng Văn Thụ,Phan Thúc Duyện,,Đang khai thác,106.664221,10.802403,CvHVT CvHVT PTD,"04, 08, 104, 64",4,7
258,QTB 107,Vòng xoay Lăng Cha Cả,Nhà chờ,Quận Tân Bình,,20,Trần Quốc Hoàn,,Đang khai thác,106.662312,10.801365,VxLCC 20 TQH,"04, 08, 103, 104, 109, 148, 152, 50, 59, 64",4,7
259,QTB 110,Siêu thị Maximark Cộng Hòa,Ô sơn,Quận Tân Bình,,60,Cộng Hòa,,Đang khai thác,106.659168,10.801038,StMCH 60 CH,"04, 104, 145, 28, 70-3",4,7
260,QTB 111,Nhà hát Quân Đội,Trụ dừng,Quận Tân Bình,,138 (Kế nhà hát Quân đội),Cộng Hòa,,Đang khai thác,106.656754,10.801238,NhQD 138(nhQd CH,"04, 104, 145, 28",4,7
261,QTB 112,Ngân hàng Quân đội,Nhà chờ,Quận Tân Bình,,Tiệc cưới Hương Sen,Cộng Hòa,,Đang khai thác,106.654817,10.801412,NhQd TcHS CH,"04, 104, 145, 28",4,7
262,QTB 113,Công ty Lô Hội,Trụ dừng,Quận Tân Bình,,184,Cộng Hòa,,Đang khai thác,106.651127,10.801728,CtLH 184 CH,"04, 104, 145, 28, 70-3",4,7
263,QTB 114,Ngã tư Hoàng Hoa Thám,Trụ dừng,Quận Tân Bình,,304,Cộng Hòa,,Đang khai thác,106.646953,10.802102,NtHHT 304 CH,"04, 104, 145, 28, 70-3",4,7
264,QTB 115,Ngã ba Bình Giã,Trụ dừng,Quận Tân Bình,,394-396,Cộng Hòa,,Đang khai thác,106.644512,10.802276,NbBG 394-396 CH,"04, 104, 145, 28",4,7
265,QTB 116,ETown,Trụ dừng,Quận Tân Bình,,496,Cộng Hòa,,Đang khai thác,106.640967,10.802571,E 496 CH,"04, 104, 145, 28, 70-3",4,7
266,QTB 117,Thượng Uyển,Nhà chờ,Quận Tân Bình,,660 (kế 592),Cộng Hòa,,Đang khai thác,106.636192,10.806313,TU 660(592) CH,"04, 104, 145, 28, 70-3",4,7
268,QTB 075,Mũi tàu Cộng Hòa,Trụ dừng,Quận Tân Bình,,19B1,Trường Chinh,,Đang khai thác,106.634696,10.808078,MtCH 19B1 TC,"04, 104, 145, 16, 23, 27, 28, 62, 65",4,7
267,QTB 076,Ngã ba Chế Lan Viên,Nhà chờ,Quận Tân Bình,,Đối diện đường Chế Lan Viên,Trường Chinh,,Đang khai thác,106.633349,10.812204,NbCLV DddCLV TC,"04, 104, 145, 16, 23, 27, 28, 62, 65, 70-3",4,7
270,QTB 078,UBND Phường 15,Nhà chờ,Quận Tân Bình,,850,Trường Chinh,,Đang khai thác,106.631461,10.818332,UP15 850 TC,"04, 104, 145, 23, 27, 28, 62, 65, 70-3",4,7
271,QTB 079,Khu Công Nghiệp Tân Bình,Nhà chờ,Quận Tân Bình,,932,Trường Chinh,,Đang khai thác,106.630254,10.822452,KCNTB 932 TC,"04, 104, 13, 145, 23, 27, 32, 41, 61-8, 62, 65, 70-3, 94",4,7
272,Q12 128,Cầu Tham Lương - Siêu thị Thiên Hòa,Nhà chờ,Quận 12,,60A-B (1/17A),Trường Chinh,,Đang khai thác,106.625828,10.826957,CTL-StTH 60A-B( TC,"04, 104, 145, 23, 27, 41, 61-8, 62, 65, 70-3",4,7
273,Q12 129,Chùa Vĩnh Phước,Nhà chờ,Quận 12,,110 (189/4),Trường Chinh,,Đang khai thác,106.624594,10.828627,CVP 110( TC,"04, 104, 13, 145, 27, 41, 65, 70-3, 94",4,7
275,Q12 132,Chùa Lạc Quang,Nhà chờ,Quận 12,,408,Trường Chinh,,Đang khai thác,106.620614,10.834781,CLQ 408 TC,"04, 104, 145, 27, 41, 65, 70-3",4,7
277,Q12 131,Bitis,Nhà chờ,Quận 12,,590 (640),Trường Chinh,,Đang khai thác,106.618398,10.838222,B 590( TC,"04, 104, 145, 27, 41, 65, 70-3",4,7
1115,Q12 122,Bến xe An Sương,Trụ dừng,Quận 12,,F42,Quốc lộ 22,,Đang khai thác,106.613517,10.845803,BxAS F Ql22,"04, 104, 122, 13, 145, 24, 27, 62-5, 65, 70-3, 71, 85",4,7
1239,HHM 058,Bến xe An Sương,Trụ dừng,Huyện Hóc Môn,Xã Bà Điểm,1B,Quốc lộ 22,,Đang khai thác,106.613522,10.845187,BxAS 1B Ql22,"04, 122, 13, 145, 24, 62-5, 65, 70-3, 71, 74, 85, 94",4,7
166,BX41,Bến xe An Sương,Bến xe,Quận 12,,Bến xe An Sương,Quốc lộ 22,,Đang khai thác,106.61337280273438,10.843737602233887,BxAS BxAS Ql22,"04, 104, 122, 151, 27, 33, 41, 61-3, 62-5, 65, 71, 74, 85",4,7
8,BX14,Bến xe Chợ Lớn,Bến xe,Quận 5,,GA HKXB CHO LON,Lê Quang Sung,,Đang khai thác,106.6525650024414,10.751253128051758,BxCL GHCL LQS,"01, 05, 06, 07, 09, 150, 23, 47, 56, 62-1, 62-10, 62-7, 62-8, 81, 94",1,2
1,Q6 095,Chu Văn An,Trụ dừng,Quận 6,,27,Tháp Mười,,Đang khai thác,106.652554,10.750232,CVA 27 TM,"01, 07, 10, 150, 25",1,2
2,Q5 016,Chợ Kim Biên,Trụ dừng,Quận 5,,11-12,Hải Thượng Lãn Ông,,Đang khai thác,106.655075,10.750732,CKB 11-12 HTLO,"01, 05, 07, 25, 39, 47, 56",1,2
3,Q5 011,Bưu điện Quận 5,Ô sơn,Quận 5,,14-16,Châu Văn Liêm,,Đang khai thác,106.659203,10.751368,BdQ5 14-16 CVL,"01, 05, 07, 08, 45, 56, 62",1,2
5,Q5 012,Rạp Đại Quang,Nhà chờ,Quận 5,,68,Châu Văn Liêm,,Đang khai thác,106.658937,10.752566,RDQ 68 CVL,"01, 05, 07, 08, 10, 45, 56, 62",1,2
4,Q5 055,Lương Nhữ Học,Trụ dừng,Quận 5,,727,Nguyễn Trãi,,Đang khai thác,106.660418,10.752962,LNH 727 NT,"01, 91",1,2
7,Q5 056,Triệu Quang Phục,Trụ dừng,Quận 5,,695,Nguyễn Trãi,,Đang khai thác,106.662081,10.753088,TQP 695 NT,"01, 91",1,2
9,Q5 057,Đại học Sư phạm Thể dục thể thao,Nhà chờ,Quận 5,,639,Nguyễn Trãi,,Đang khai thác,106.663486,10.753341,DhSpTdtt 639 NT,"01, 91",1,2
12,Q5 058,Siêu thị Điện máy Chợ Lớn,Trụ dừng,Quận 5,,635B,Nguyễn Trãi,,Đang khai thác,106.664913,10.753626,StDmCL 635B NT,"01, 91",1,2
6,Q5 059,Ngô Quyền,Trụ dừng,Quận 5,,593,Nguyễn Trãi,,Đang khai thác,106.666882,10.754,NQ 593 NT,"01, 91",1,2
10,Q5 060,Chung cư Nguyễn Trãi,Trụ dừng,Quận 5,,549,Nguyễn Trãi,,Đang khai thác,106.668572,10.754337,CcNT 549 NT,"01, 91",1,2
11,Q5 072,Siêu thị Điện máy,Trụ dừng,Quận 5,,99,Nguyễn Tri Phương,,Đang khai thác,106.669418,10.754023,StDm 99 NTP,"01, 59",1,2
14,Q5 099,Nhà Văn hóa Quận 5,Trụ dừng,Quận 5,,388,Trần Phú,,Đang khai thác,106.668588,10.753025,NVhQ5 388 TP,"01, 59",1,2
16,Q5 093,Đồng Khánh,Trụ dừng,Quận 5,,41,Trần Hưng Đạo,,Đang khai thác,106.670412,10.752677,DK 41 THD,01,1,2
17,Q5 094,An Bình,Trụ dừng,Quận 5,,1149,Trần Hưng Đạo,,Đang khai thác,106.672837,10.752977,AB 1149 THD,01,1,2
13,Q5 095,Rạp Đồng Tháp,Trụ dừng,Quận 5,,981,Trần Hưng Đạo,,Đang khai thác,106.675937,10.753784,RDT 981 THD,01,1,2
15,Q5 096,Bệnh viện Chấn Thương Chỉnh hình,Nhà chờ,Quận 5,,929,Trần Hưng Đạo,,Đang khai thác,106.678271,10.754421,BvCTCh 929 THD,01,1,2
19,Q5 097,Trần Bình Trọng,Trụ dừng,Quận 5,,813,Trần Hưng Đạo,,Đang khai thác,106.680041,10.754912,TBT 813 THD,01,1,2
20,Q5 098,Nguyễn Biểu,Trụ dừng,Quận 5,,651,Trần Hưng Đạo,,Đang khai thác,106.68437,10.756066,NB 651 THD,01,1,2
18,Q1 131,Chợ Nanci,Trụ dừng,Quận 1,,563-565,Trần Hưng Đạo,,Đang khai thác,106.685883,10.75699,CN 563-565 THD,"01, 139, 152",1,2
22,Q1 132,Tổng Cty Samco,Nhà chờ,Quận 1,,393 bis,Trần Hưng Đạo,,Đang khai thác,106.688254,10.759734,TCS 393b THD,"01, 139, 152",1,2
21,Q1 133,Sở PCCC,Nhà chờ,Quận 1,,359,Trần Hưng Đạo,,Đang khai thác,106.689096,10.760656,SP 359 THD,"01, 139, 152",1,2
23,Q1 134,Hồ Hảo Hớn,Trụ dừng,Quận 1,,301F,Trần Hưng Đạo,,Đang khai thác,106.690636,10.762395,HHH 301F THD,"01, 139, 152",1,2
24,Q1 135,Bệnh Viện Răng Hàm Mặt,Nhà chờ,Quận 1,Phường Cô Giang,263,Trần Hưng Đạo,,Đang khai thác,106.691612,10.763567,BVRHM 263 THD,"01, 139, 152",1,2
25,Q1 136,Rạp Trần Hưng Đạo,Nhà chờ,Quận 1,,227 - 229,Trần Hưng Đạo,,Đang khai thác,106.693069,10.765213,RTHD 227-229 THD,"01, 139, 152, 45, 53, 56",1,2
26,Q1 137,KTX Trần Hưng Đạo,Nhà chờ,Quận 1,,135/40 (135),Trần Hưng Đạo,,Đang khai thác,106.694824,10.767064,KTHD 135/40( THD,"01, 139, 152, 45, 53, 56, 88",1,2
27,Q1 138,Nguyễn Kim,Nhà chờ,Quận 1,,71C,Trần Hưng Đạo,,Đang khai thác,106.695847,10.768327,NK 71C THD,"01, 152, 31, 38, 45, 53, 56, 61-6, 75, 86, 88",1,2
7266,Q1 180,Trạm Trung chuyển trên đường Hàm Nghi,Nhà chờ,Quận 1,Phường Nguyễn Thái Bình,Hàm Nghi 7,Hàm Nghi,Có,Đang khai thác,106.700807,10.770896,TTctdHN HN7 HN,"01, 03, 04, 19, 56, 88",1,2
7693,Q1 1950,Nam Kỳ Khởi Nghĩa,Nhà chờ,Quận 1,Phường Nguyễn Thái Bình,93-95,Hàm Nghi,Có,Đang khai thác,106.701354,10.770875,NKKN 93-95 HN,"01, 03, 04, 19, 88",1,2
1256,Q1 195,Chợ Cũ,Nhà chờ,Quận 1,Phường Nguyễn Thái Bình,89A,Hàm Nghi,,Đang khai thác,106.701998,10.770811,CC 89A HN,"01, 03, 04, 152, 18, 19, 31, 36, 45, 52, 56, 61-6, 75, 86, 88, 93",1,2
32,Q1 017,Hồ Tùng Mậu,Nhà chờ,Quận 1,Phường Nguyễn Thái Bình,67,Hàm Nghi,,Đang khai thác,106.704074,10.770722,HTM 67 HN,"01, 03, 120, 19, 20, 45, 56, 61-6, 75, 88, D1, DL01",1,2
31,Q1 024,Bến Bạch Đằng,Nhà chờ,Quận 1,,Bến thủy nội địa Thủ Thiêm,Tôn Đức Thắng,,Đang khai thác,106.706654,10.774094,BBD BtndTT TDT,"01, 03, 19, 45, 53, 56, 61-6, 88, D1, DL01",1,2
34,Q1 057,Công Trường Mê Linh,Nhà chờ,Quận 1,,2,Hai Bà Trưng,,Đang khai thác,106.705822,10.775997,CTML 2 HBT,"01, 03, 19, 45",1,2
33,BX 06,Công Trường Mê Linh,Bến xe,Quận 1,,Công trường Mê Linh,Thi Sách,,Đang khai thác,106.705856,10.77679,CTML CtML TS,01,1,2
166,BX41,Bến xe An Sương,Bến xe,Quận 12,,Bến xe An Sương,Quốc lộ 22,,Đang khai thác,106.61337280273438,10.843737602233887,BxAS BxAS Ql22,"04, 104, 122, 151, 27, 33, 41, 61-3, 62-5, 65, 71, 74, 85",4,8
167,Q12 135,Bitis,Nhà chờ,Quận 12,,487,Trường Chinh,,Đang khai thác,106.617347,10.838891,B 487 TC,"04, 104, 145, 27, 41, 65, 70-3",4,8
172,Q12 136,Chùa Lạc Quang,Nhà chờ,Quận 12,,257,Trường Chinh,,Đang khai thác,106.620212,10.834497,CLQ 257 TC,"04, 104, 145, 27, 41, 65, 70-3",4,8
168,Q12 137,Chùa Vĩnh Phước,Nhà chờ,Quận 12,,Chùa Vĩnh Phước,Trường Chinh,,Đang khai thác,106.621794,10.83202,CVP CVP TC,"04, 104, 145, 27, 41, 65",4,8
169,Q12 139,Cầu Tham Lương - Siêu thị Thiên Hòa,Nhà chờ,Quận 12,,21 (Kế 2/6B),Trường Chinh,,Đang khai thác,106.62586,10.82624,CTL-StTH 21(2/6B) TC,"04, 104, 13, 145, 23, 27, 41, 61-8, 62, 65, 70-3, 94",4,8
174,QTP 010,Trạm Dệt Thành Công,Nhà chờ,Quận Tân Phú,Phường Tây Thạnh,8,Trường Chinh,Có,Đang khai thác,106.629825,10.822315,TDTC 8 TC,"04, 104, 13, 145, 23, 27, 32, 41, 61-8, 62, 65, 70-3, 94",4,8
173,QTP 011,Trạm KCN Tân Bình,Nhà chờ,Quận Tân Phú,Phường Tây Thạnh,881,Trường Chinh,Có,Đang khai thác,106.630615,10.819386,TKTB 881 TC,"04, 104, 145, 23, 27, 28, 62, 65, 70-3",4,8
176,QTP 012,Ngã 3 Chế Lan Viên,Nhà chờ,Quận Tân Phú,Phường Tây Thạnh,831 (trước showroom o tô),Trường Chinh,Có,Đang khai thác,106.631472,10.817114,N3CLV 831(sot TC,"04, 104, 145, 23, 27, 28, 62, 65, 70-3",4,8
175,QTP 013,Chế Lan Viên,Nhà chờ,Quận Tân Phú,Phường Tây Thạnh,28/7B,Trường Chinh,,Đã hủy,106.632748,10.812878,CLV 28/7B TC,"04, 104, 145, 16, 23, 27, 28, 62, 65, 70-3",4,8
177,QTP 014,Trạm Đài Liệt Sỹ,Nhà chờ,Quận Tân Phú,Phường Tây Thạnh,1/3,Trường Chinh,,Đang khai thác,106.634262,10.808209,TDLS 1/3 TC,"04, 104, 145, 16, 23, 27, 28, 48, 62, 65",4,8
178,QTB 118,Thượng Uyển,Nhà chờ,Quận Tân Bình,,680 (Thượng Uyển),Cộng Hòa,,Đang khai thác,106.636055,10.806144,TU 680(U CH,"04, 104, 145, 28, 70-3",4,8
180,QTB 119,Ngã tư Tân Kỳ Tân Quý,Trụ dừng,Quận Tân Bình,,401,Cộng Hòa,,Đang khai thác,106.637887,10.803541,NtTKTQ 401 CH,"04, 104, 145, 28",4,8
181,QTB 120,ETown,Nhà chờ,Quận Tân Bình,,ETown,Cộng Hòa,,Đang khai thác,106.640253,10.802371,E E CH,"04, 104, 145, 28, 70-3",4,8
179,QTB 121,Ngã ba Bình Giã,Trụ dừng,Quận Tân Bình,,303,Cộng Hòa,,Đang khai thác,106.644292,10.802055,NbBG 303 CH,"04, 104, 145, 28, 70-3",4,8
183,QTB 122,Công ty Lô Hội,Nhà chờ,Quận Tân Bình,,19A (Công ty Lô Hội),Cộng Hòa,,Đang khai thác,106.650413,10.801544,CtLH 19A(tLH CH,"04, 104, 145, 28, 70-3",4,8
182,QTB 123,Pico Plaza,Nhà chờ,Quận Tân Bình,,20Bis,Cộng Hòa,,Đang khai thác,106.653637,10.801254,PP 20Bis CH,"04, 104, 145, 28, 70-3",4,8
185,QTB 124,Ngã ba Út tịch,Trụ dừng,Quận Tân Bình,,35-37,Cộng Hòa,,Đang khai thác,106.656679,10.800985,NbÚt 35-37 CH,"04, 104, 145, 28",4,8
184,QTB 125,Siêu thị Maximart Cộng Hòa,Nhà chờ,Quận Tân Bình,,Đối diện 58 (Siêu thị Maximart),Cộng Hòa,,Đang khai thác,106.658819,10.800833,StMCH Dd58(tM CH,"04, 104, 145, 28, 70-3",4,8
187,QTB 036,Công viên Hoàng Văn Thụ,Nhà chờ,Quận Tân Bình,,259,Hoàng Văn Thụ,,Đang khai thác,106.663578,10.800469,CvHVT 259 HVT,"04, 08, 103, 104, 148, 50, 59, 64",4,8
186,QTB 037,Bảo Tàng Miền Đông,Nhà chờ,Quận Tân Bình,,247,Hoàng Văn Thụ,,Đang khai thác,106.666372,10.800237,BTMD 247 HVT,"04, 08, 104, 109, 152, 64",4,8
188,QPN 043,Cây xăng Quân khu 7,Trụ dừng,Quận Phú Nhuận,,307,Nguyễn Văn Trỗi,,Đang khai thác,106.66847,10.799589,CxQk7 307 NVT,"04, 109, 152",4,8
190,QPN 044,Bệnh viện Quận Phú Nhuận,Trụ dừng,Quận Phú Nhuận,,279,Nguyễn Văn Trỗi,,Đang khai thác,106.670744,10.798282,BvQPN 279 NVT,"04, 109, 152",4,8
191,QPN 045,Cổng Xe lửa,Trụ dừng,Quận Phú Nhuận,,253,Nguyễn Văn Trỗi,,Đang khai thác,106.673609,10.796596,CXl 253 NVT,"04, 109, 152",4,8
189,QPN 046,Trung tâm Văn hóa Quận Phú Nhuận,Trụ dừng,Quận Phú Nhuận,,157,Nguyễn Văn Trỗi,,Đang khai thác,106.675894,10.795236,TtVhQPN 157 NVT,"04, 109, 152",4,8
193,QPN 047,Ngã tư Trần Huy Liệu,Trụ dừng,Quận Phú Nhuận,,101,Nguyễn Văn Trỗi,,Đang khai thác,106.679167,10.793276,NtTHL 101 NVT,"04, 109, 152",4,8
192,Q3 052,Chùa Vĩnh Nghiêm,Trụ dừng,Quận 3,Phường 07,321-323,Nam Kỳ Khởi Nghĩa,,Đang khai thác,106.683022,10.790381,CVN 321-323 NKKN,"04, 109, 152, 72-1",4,8
196,Q3 053,Trần Quốc Toản,Trụ dừng,Quận 3,Phường 07,201 F-E,Nam Kỳ Khởi Nghĩa,,Đang khai thác,106.686897,10.786831,TQT 201F NKKN,"04, 109, 152",4,8
194,Q3 054,Viện Pasteur,Nhà chờ,Quận 3,Phường 07,179,Nam Kỳ Khởi Nghĩa,,Đang khai thác,106.688474,10.785351,VP 179 NKKN,"04, 109, 152",4,8
198,Q3 055,Điện Biên Phủ,Nhà chờ,Quận 3,,159,Nam Kỳ Khởi Nghĩa,Có,Đang khai thác,106.69099,10.783116,DBP 159 NKKN,"04, 109, 152",4,8
195,Q3 056,Coop Mart Nguyễn Đình Chiểu,Nhà chờ,Quận 3,,143,Nam Kỳ Khởi Nghĩa,,Đang khai thác,106.693152,10.78113,CMNDC 143 NKKN,"04, 109, 152, 31, 93",4,8
197,Q3 057,Trường THPT Lê Quý Đôn,Nhà chờ,Quận 3,,Đối diện 166 - 168,Nam Kỳ Khởi Nghĩa,,Đang khai thác,106.69452,10.779844,TTLQD Dd166-168 NKKN,"04, 109, 152, 31, 93",4,8
200,Q1 075,Tòa án Nhân dân Thành Phố,Nhà chờ,Quận 1,,131,Nam Kỳ Khởi Nghĩa,,Đang khai thác,106.698647,10.776052,TaNdTP 131 NKKN,"04, 109, 152, 18, 31, 36, 52, 93",4,8
199,Q1 076,Chùa Ông,Trụ dừng,Quận 1,,Đối diện 96A,Nam Kỳ Khởi Nghĩa,,Đang khai thác,106.699722,10.773957,CO Dd96A NKKN,"04, 109, 152, 18, 31, 36, 44, 52, 93",4,8
201,Q1 077,Trường CĐKT Cao Thắng,Trụ dừng,Quận 1,,Đối diện 86,Nam Kỳ Khởi Nghĩa,,Đang khai thác,106.700851,10.771416,TCCT Dd86 NKKN,"04, 109, 152, 18, 31, 36, 52, 93",4,8
82,Q1 023,Trạm Trung chuyển trên đường Hàm Nghi,Nhà chờ,Quận 1,Phường Bến Thành,Hàm Nghi 16 (140),Hàm Nghi,,Đang khai thác,106.699326,10.771243,TTctdHN HN16( HN,"04, 18, 20",4,8
7273,Q1 187,Khách sạn New World,Ô sơn,Quận 1,Phường Bến Thành,Đối diện cây xanh số 105,Lê Lai,Có,Đang khai thác,106.695946,10.770964,KsNW Ddcxs105 LL,"03, 04, 102, 109, 18, 19, 20, 34, 36, 39, 52, 75, 86, 88, 93",4,8
7274,Q1 188,Nguyễn Thị Nghĩa,Trụ dừng,Quận 1,Phường Bến Thành,94-96,Lê Lai,Có,Đang khai thác,106.693495,10.769952,NTN 94-96 LL,"03, 04, 102, 109, 140, 18, 19, 20, 34, 36, 39, 52, 53, 69, 72, 75, 86, 88, 93",4,8
7275,Q1 189,Tôn Thất Tùng,Trụ dừng,Quận 1,Phường Bến Thành,202-204,Lê Lai,Có,Đang khai thác,106.690469,10.768761,TTT 202-204 LL,"03, 04, 102, 109, 140, 18, 19, 20, 34, 36, 39, 52, 53, 69, 72, 75, 86, 88, 93",4,8
35,BX 01,Bến xe buýt Sài Gòn,Bến xe,Quận 1,Phường Phạm Ngũ Lão,BẾN XE BUÝT SÀI GÒN,Lê Lai,Có,Đang khai thác,106.689362,10.767676,BxbSG BXBSG LL,"03, 04, 102, 109, 120, 13, 140, 18, 19, 20, 27, 28, 34, 36, 39, 52, 61-6, 65, 69, 70-3, 72, 75, 86, 88, 93, D1",4,8
8,BX14,Bến xe Chợ Lớn,Bến xe,Quận 5,,GA HKXB CHO LON,Lê Quang Sung,,Đang khai thác,106.6525650024414,10.751253128051758,BxCL GHCL LQS,"01, 05, 06, 07, 09, 150, 23, 47, 56, 62-1, 62-10, 62-7, 62-8, 81, 94",6,1
464,Q5 023,Bến xe Chợ Lớn,Trụ dừng,Quận 5,,555,Hồng Bàng,,Đang khai thác,106.652334,10.753331,BxCL 555 HB,"06, 09, 103, 139, 23, 62-1, 62-10, 62-6, 62-7, 68, 81",6,1
470,Q5 024,Thuận Kiều Plaza,Nhà chờ,Quận 5,,399,Hồng Bàng,,Đang khai thác,106.656749,10.754111,TKP 399 HB,"06, 139, 150, 68",6,1
437,Q5 025,Bệnh viện Chợ Rẫy,Trụ dừng,Quận 5,,357-359,Hồng Bàng,,Đang khai thác,106.659232,10.754553,BvCR 357-359 HB,"06, 07, 08, 139, 150, 56, 62, 68",6,1
439,Q5 026,Đại học Y Dược,Nhà chờ,Quận 5,,217,Hồng Bàng,,Đang khai thác,106.663191,10.75536,DhYD 217 HB,"06, 07, 10, 139, 150, 56, 68",6,1
440,Q5 027,Bệnh viện Đại học Y Dược,Nhà chờ,Quận 5,,215,Hồng Bàng,,Đang khai thác,106.664683,10.755671,BvDhYD 215 HB,"06, 07, 139, 150, 56, 68, 70-3",6,1
465,Q5 006,Bệnh viện Nguyễn Tri Phương,Trụ dừng,Quận 5,,119-121,An Dương Vương,,Đang khai thác,106.670492,10.756714,BvNTP 119-121 ADV,"06, 139, 56, 70-3",6,1
469,Q5 007,Chợ An Đông,Trụ dừng,Quận 5,,59C,An Dương Vương,,Đang khai thác,106.672182,10.757057,CAD 59C ADV,"06, 139, 56",6,1
466,Q5 008,Huỳnh Mẫn Đạt,Trụ dừng,Quận 5,,439,An Dương Vương,,Đang khai thác,106.676576,10.758374,HMD 439 ADV,"06, 139, 38, 45, 56",6,1
472,Q5 009,Chợ Bầu Sen,Ô sơn,Quận 5,,367-373,An Dương Vương,,Đang khai thác,106.678453,10.759138,CBS 367-373 ADV,"06, 139, 38, 45, 56",6,1
467,Q5 010,Đại học Sài Gòn,Nhà chờ,Quận 5,,273-275,An Dương Vương,,Đang khai thác,106.682321,10.760672,DhSG 273-275 ADV,"06, 139, 38, 45, 56",6,1
474,Q1 141,ĐH Khoa Học Tự Nhiên,Nhà chờ,Quận 1,Phường Nguyễn Cư Trinh,Đối diện số 217,Nguyễn Văn Cừ,,Đang khai thác,106.683052,10.762292,DKHTN Dds217 NVC,06,6,1
471,Q1 142,Trường Lê Hồng Phong,Nhà chờ,Quận 1,Phường Nguyễn Cư Trinh,Đối diện số 235 (trước NowZone),Nguyễn Văn Cừ,,Đang khai thác,106.68216,10.764503,TLHP Dds235(N NVC,06,6,1
287,Q1 088,Phạm Viết Chánh,Nhà chờ,Quận 1,,Đối diện 492,Nguyễn Thị Minh Khai,,Đang khai thác,106.682533,10.766214,PVC Dd492 NTMK,"05, 06, 14, 38, 69",6,1
290,Q1 089,Bệnh viện Từ Dũ,Nhà chờ,Quận 1,,Đối diện 446,Nguyễn Thị Minh Khai,,Đang khai thác,106.685024,10.768709,BvTD Dd446 NTMK,"05, 06, 14, 38, 69",6,1
289,Q1 090,Tôn Thất Tùng,Trụ dừng,Quận 1,,99,Nguyễn Thị Minh Khai,,Đang khai thác,106.687943,10.77185,TTT 99 NTMK,"05, 06, 14, 38, 69",6,1
292,Q1 091,Sở Y Tế,Nhà chờ,Quận 1,,Đối diện 214-216,Nguyễn Thị Minh Khai,,Đang khai thác,106.690158,10.774179,SYT Dd214-216 NTMK,"05, 06, 14, 28",6,1
242,Q1 092,Nhà Văn Hóa Lao Động,Nhà chờ,Quận 1,,Đối diện số 138,Nguyễn Thị Minh Khai,,Đang khai thác,106.692757,10.777097,NVHLD Dds138 NTMK,"05, 06, 14, 28",6,1
291,Q1 093,Pasteur,Nhà chờ,Quận 1,,43 - 45 - 47,Nguyễn Thị Minh Khai,,Đang khai thác,106.696434,10.781031,P 43-45-47 NTMK,"05, 06, 14, 31",6,1
294,Q1 094,Mạc Đỉnh Chi,Trụ dừng,Quận 1,,21,Nguyễn Thị Minh Khai,,Đang khai thác,106.699503,10.784191,MDC 21 NTMK,"05, 06, 14, 45, 52",6,1
296,Q1 095,Đinh Tiên Hoàng,Trụ dừng,Quận 1,,15C-15D,Nguyễn Thị Minh Khai,,Đang khai thác,106.70137,10.786146,DTH 15C-15D NTMK,"05, 06, 14, 45, 52",6,1
293,Q1 096,Thảo Cầm Viên,Nhà chờ,Quận 1,,3,Nguyễn Thị Minh Khai,,Đang khai thác,106.70459,10.789598,TCV 3 NTMK,"05, 06, 14, 19, 52, 61-6",6,1
295,Q1 097,Cầu Thị Nghè,Nhà chờ,Quận 1,,1A,Nguyễn Thị Minh Khai,,Đang khai thác,106.705597,10.790669,CTN 1A NTMK,"05, 06, 14, 19, 52, 61-6",6,1
298,QBTH 126,Nhà Thờ Thị Nghè,Nhà chờ,Quận Bình Thạnh,,22 B,Xô Viết Nghệ Tĩnh,,Đang khai thác,106.708156,10.793418,NTTN 22B XVNT,"05, 06, 14, 19, 52, 61-6",6,1
297,QBTH 125,Trung tâm Dưỡng Lão,Trụ dừng,Quận Bình Thạnh,,138,Xô Viết Nghệ Tĩnh,,Đang khai thác,106.71057,10.796533,TtDL 138 XVNT,"05, 06, 14, 19, 44, 52, 61-6",6,1
300,QBTH 124,Trường trung học Gia Định,Trụ dừng,Quận Bình Thạnh,,246,Xô Viết Nghệ Tĩnh,,Đang khai thác,106.711203,10.798999,TthGD 246 XVNT,"05, 06, 14, 19, 44, 52, 61-6",6,1
476,QBTH 059,Đại học Hutech,Ô sơn,Quận Bình Thạnh,,510-512,Điện Biên Phủ,,Đang khai thác,106.714255,10.800827,DhH 510-512 DBP,"06, 104, 150, 43, 52, 55, 60-3, 60-4, 72-1",6,1
473,QBTH 058,Khu Du lịch Văn Thánh,Nhà chờ,Quận Bình Thạnh,,600,Điện Biên Phủ,,Đang khai thác,106.717404,10.799531,KDlVT 600 DBP,"06, 104, 150, 43, 52, 55, 60-3, 60-4",6,1
475,QBTH 057,Cầu Sài Gòn,Trụ dừng,Quận Bình Thạnh,,658,Điện Biên Phủ,,Đang khai thác,106.719496,10.798525,CSG 658 DBP,"06, 104, 150, 43, 52, 55, 60-3, 60-4",6,1
477,Q2 071,Cầu Đen,Nhà chờ,Quận 2,,794,Xa Lộ Hà Nội,,Đang khai thác,106.7342,10.799978,CD 794 XLHN,"06, 10, 104, 150, 30, 52, 53, 55, 56, 60-4, 72-1",6,1
478,Q2 072,Thảo Điền,Nhà chờ,Quận 2,,Đối diện ngã 3 Thảo Điền,Xa Lộ Hà Nội,,Đang khai thác,106.738899,10.800838,TD Ddn3TD XLHN,"06, 104, 150, 30, 52, 55, 56, 60-3, 60-4",6,1
480,Q2 073,Metro Quận 2,Nhà chờ,Quận 2,,170,Xa Lộ Hà Nội,,Đang khai thác,106.742928,10.801584,MQ2 170 XLHN,"06, 104, 150, 30, 52, 55, 56, 60-3, 60-4",6,1
479,Q2 074,Cát Lái,Nhà chờ,Quận 2,,Khu dân cư Estella,Xa Lộ Hà Nội,,Đang khai thác,106.748089,10.802592,CL KdcE XLHN,"06, 104, 150, 30, 52, 55, 56, 60-3, 60-4",6,1
482,Q9 210,Xi măng hà tiên - trạm thu phí,Nhà chờ,Quận 9,,249B,Xa Lộ Hà Nội,,Đang khai thác,106.758394,10.819206,Xmht-ttp 249B XLHN,"06, 104, 150, 30, 52, 55, 56, 60-3, 60-4, 99",6,1
481,Q9 211,Ngã 4 Tây Hòa (RMK),Nhà chờ,Quận 9,,185A,Xa Lộ Hà Nội,,Đang khai thác,106.760775,10.825972,N4TH( 185A XLHN,"06, 104, 150, 30, 52, 55, 56, 60-3, 60-4, 99",6,1
485,Q9 212,Trạm xây dựng,Nhà chờ,Quận 9,,354A,Xa Lộ Hà Nội,,Đang khai thác,106.76312,10.829955,Txd 354A XLHN,"06, 104, 150, 30, 52, 55, 56, 60-3, 60-4",6,1
483,Q9 213,Khu QLGTDT số 2,Nhà chờ,Quận 9,,Khu QLGTĐT số 2,Xa Lộ Hà Nội,,Đang khai thác,106.764778,10.833249,KQs2 KQs2 XLHN,"06, 10, 104, 150, 30, 52, 53, 55, 56, 60-4",6,1
484,QTD 054,Tu viện Quảng Đức,Ô sơn,Quận Thủ Đức,Phường Bình Thọ,Kế 01-02 (Đối diện 23-25),Đặng Văn Bi,,Đang khai thác,106.766719,10.838786,TvQD K01-02(d23-25) DVB,"06, 56",6,1
486,QTD 055,Công ty Sanofi Aventis,Trụ dừng,Quận Thủ Đức,Phường Bình Thọ,Kế 50,Đặng Văn Bi,,Đang khai thác,106.764175,10.841652,CtSA K50 DVB,"06, 29, 56",6,1
489,QTD 056,Công ty may Sài Gòn,Trụ dừng,Quận Thủ Đức,Phường Bình Thọ,Đối diện 139A,Đặng Văn Bi,,Đang khai thác,106.762466,10.843897,CtmSG Dd139A DVB,"06, 29, 56",6,1
491,QTD 057,Trường mầm non Vành Khuyên,Trụ dừng,Quận Thủ Đức,Phường Bình Thọ,Trường mầm non Vành Khuyên,Đặng Văn Bi,,Đang khai thác,106.760056,10.847888,TmnVK TmnVK DVB,"06, 29, 56",6,1
488,QTD 058,Làng Thiếu Niên Thủ Đức,Trụ dừng,Quận Thủ Đức,,238-240,Đặng Văn Bi,,Đang khai thác,106.758781,10.850015,LTNTD 238-240 DVB,"06, 29, 56",6,1
493,QTD 070,Ngã ba Chương Dương,Trụ dừng,Quận Thủ Đức,Phường Bình Thọ,120,Võ Văn Ngân,,Đang khai thác,106.760931,10.850419,NbCD 120 VVN,"06, 08, 141, 56, 57, 61-1, 89",6,1
490,QTD 071,Cao đẳng xây dựng 2,Nhà chờ,Quận Thủ Đức,,190,Võ Văn Ngân,,Đang khai thác,106.764439,10.85065,Cdxd2 190 VVN,"06, 08, 141, 56, 57, 61-1, 89",6,1
492,QTD 072,Siêu thị Nguyễn Kim,Trụ dừng,Quận Thủ Đức,Phường Linh Chiểu,275-274,Võ Văn Ngân,,Đang khai thác,106.769112,10.849686,StNK 275-274 VVN,"06, 08, 141, 56, 57, 61-1",6,1
497,QTD 073,Trường ĐHSP Kỹ Thuật,Trụ dừng,Quận Thủ Đức,Phường Bình Thọ,366-368,Võ Văn Ngân,,Đang khai thác,106.771917,10.849597,TDKT 366-368 VVN,"06, 08, 141, 56, 57, 61-1, 89",6,1
494,Q9 218,Công an Quận 9,Nhà chờ,Quận 9,,Công an Quận 9,Xa Lộ Hà Nội,,Đang khai thác,106.775066,10.849966,CaQ9 CaQ9 XLHN,"06, 08, 150, 30, 52, 60-3, 60-4, 76",6,1
7159,Q9 281,Trạm Hutech - Khu Công nghệ cao,Nhà chờ,Quận 9,Phường Hiệp Phú,Trước Trung tâm Đào tạo NL CLC Hutech,Song hành phải Xa Lộ Hà Nội,Có,Đang khai thác,106.785382,10.856398,TH-KCnc TTtDtNCH ShpXLHN,"06, 08, 10, 150, 30, 52, 60-4, 76",6,1
495,Q9 220,Khu Công nghệ cao quận 9,Nhà chờ,Quận 9,,Khu công nghệ cao,Xa Lộ Hà Nội,,Đang khai thác,106.788869,10.858511,KCncq9 Kcnc XLHN,"06, 08, 150, 30, 52, 60-3, 60-4, 76",6,1
500,QTD 180,Đại học Nông Lâm,Trụ dừng,Quận Thủ Đức,Phường Linh Trung,85 (Đối diện 1026-1028),Quốc lộ 1,,Đang khai thác,106.791101,10.866961,DhNL 85(d1026-1028) Ql1,"06, 19, 33, 50, 60-1, 60-2, 93",6,1
394,BX73,Đại học Nông Lâm,Bến xe,Quận Thủ Đức,,Bến xe buýt ĐH Nông Lâm,Quốc lộ 1,,Đang khai thác,106.78744506835938,10.868183135986328,DhNL BxbDNL Ql1,"06, 104, 60-2, 89",6,1
394,BX73,Đại học Nông Lâm,Bến xe,Quận Thủ Đức,,Bến xe buýt ĐH Nông Lâm,Quốc lộ 1,,Đang khai thác,106.78744506835938,10.868183135986328,DhNL BxbDNL Ql1,"06, 104, 60-2, 89",6,2
396,QTD 174,ĐH Nông Lâm,Trụ dừng,Quận Thủ Đức,Phường Linh Trung,1026/2 (1030),Quốc lộ 1,,Đang khai thác,106.790283,10.866912,DNL 1026/2( Ql1,"06, 19, 33, 50, 60-1, 60-2, 93",6,2
398,QTD 074,Khu Công nghệ cao Q9,Trụ dừng,Quận Thủ Đức,Phường Linh Trung,Đối diện Khu công nghệ cao,Xa Lộ Hà Nội,,Đang khai thác,106.791138,10.860218,KCncQ DdKcnc XLHN,"06, 08, 150, 30, 52, 60-3, 60-4, 76",6,2
4392,QTD 075,Xa Lộ Hà Nội,Nhà chờ,Quận Thủ Đức,Phường Linh Trung,Đối diện Khu Công Nghệ Cao Q.9,Xa Lộ Hà Nội,,Đang khai thác,106.788633,10.858716,XLHN DdKCNCQ XLHN,"06, 52, 60-3, 60-4, 76",6,2
401,QTD 076,Công ty Cocacola,Trụ dừng,Quận Thủ Đức,Phường Linh Trung,Công ty Cocacola,Xa Lộ Hà Nội,,Đang khai thác,106.784964,10.856483,CtC CtC XLHN,"06, 08, 150, 30, 52, 60-3, 60-4, 76",6,2
400,QTD 065,Trường Đại học Sư phạm Kỹ thuật,Nhà chờ,Quận Thủ Đức,Phường Linh Chiểu,1,Võ Văn Ngân,,Đang khai thác,106.772105,10.849871,TDhSpKt 1 VVN,"06, 08, 141, 56, 57, 89",6,2
402,QTD 066,Siêu thị Nguyễn Kim,Trụ dừng,Quận Thủ Đức,Phường Linh Chiểu,307 (312),Võ Văn Ngân,,Đang khai thác,106.768837,10.849805,StNK 307( VVN,"06, 08, 141, 56, 57, 61-1, 89",6,2
403,QTD 067,Nhà thiếu nhi Thủ Đức,Nhà chờ,Quận Thủ Đức,Phường Linh Chiểu,Nhà thiếu nhi,Võ Văn Ngân,,Đang khai thác,106.766794,10.850556,NtnTD Ntn VVN,"06, 08, 141, 56, 57, 61-1, 89",6,2
404,QTD 068,Cao đẳng xây dựng 2,Trụ dừng,Quận Thủ Đức,Phường Linh Chiểu,233 (253),Võ Văn Ngân,,Đang khai thác,106.764101,10.850808,Cdxd2 233( VVN,"06, 08, 141, 56, 57, 61-1, 89",6,2
405,QTD 069,Ngã ba Chương Dương,Nhà chờ,Quận Thủ Đức,,Đối diện 100,Võ Văn Ngân,,Đang khai thác,106.760201,10.850645,NbCD Dd100 VVN,"06, 08, 141, 56, 57, 61-1, 89",6,2
406,QTD 059,Làng Thiếu Niên Thủ Đức,Trụ dừng,Quận Thủ Đức,,249,Đặng Văn Bi,,Đang khai thác,106.758698,10.849723,LTNTD 249 DVB,"06, 29, 56",6,2
408,QTD 060,Trường THPT Quận Thủ Đức,Trụ dừng,Quận Thủ Đức,,231-233,Đặng Văn Bi,,Đang khai thác,106.759613,10.848207,TTQTD 231-233 DVB,"06, 29, 56",6,2
407,QTD 061,Công ty may Sài Gòn,Trụ dừng,Quận Thủ Đức,Phường Bình Thọ,Kế 145B,Đặng Văn Bi,,Đang khai thác,106.762133,10.844107,CtmSG K145B DVB,"06, 29, 56",6,2
411,QTD 062,Công ty Sanofi Aventis,Trụ dừng,Quận Thủ Đức,Phường Bình Thọ,15/6C,Đặng Văn Bi,,Đang khai thác,106.764354,10.84132,CtSA 15/6C DVB,"06, 29, 56",6,2
409,QTD 063,Tu viện Quảng Đức,Trụ dừng,Quận Thủ Đức,Phường Bình Thọ,Tu viện Quảng Đức,Đặng Văn Bi,,Đang khai thác,106.766338,10.839349,TvQD TvQD DVB,"06, 29, 56",6,2
410,QTD 080,Ngã 4 Bình Thái,Nhà chờ,Quận Thủ Đức,Phường Trường Thọ,Đối diện 592C,Xa Lộ Hà Nội,,Đang khai thác,106.765244,10.834945,N4BT Dd592C XLHN,"06, 10, 104, 150, 30, 52, 53, 55, 56, 60-3, 60-4",6,2
413,QTD 081,Công ty truyền tải điện 4,Nhà chờ,Quận Thủ Đức,Phường Trường Thọ,Công ty truyền tải điện 4,Xa Lộ Hà Nội,,Đang khai thác,106.763195,10.831214,Ctttd4 Ctttd4 XLHN,"06, 104, 150, 30, 52, 55, 56, 60-3, 60-4",6,2
412,QTD 082,Ngã 4 Tây Hòa (RMK),Nhà chờ,Quận Thủ Đức,Phường Trường Thọ,Nhà máy thép Thủ Đức,Xa Lộ Hà Nội,,Đang khai thác,106.759998,10.825366,N4TH( NmtTD XLHN,"06, 104, 150, 30, 52, 55, 56, 60-3, 99",6,2
414,QTD 083,Xi măng Hà Tiên,Nhà chờ,Quận Thủ Đức,Phường Trường Thọ,Xi măng Hà Tiên 1,Xa Lộ Hà Nội,,Đang khai thác,106.758142,10.820576,XmHT XmHT1 XLHN,"06, 104, 150, 30, 52, 55, 56, 60-3, 60-4, 99",6,2
415,Q2 075,Cát Lái,Nhà chờ,Quận 2,,Đối diện Esstella,Xa Lộ Hà Nội,,Đang khai thác,106.747948,10.802925,CL DdE XLHN,"06, 10, 104, 150, 30, 52, 55, 56, 60-3, 60-4",6,2
416,Q2 076,Metro Quận 2,Nhà chờ,Quận 2,,655,Xa Lộ Hà Nội,,Đang khai thác,106.7434,10.802134,MQ2 655 XLHN,"06, 104, 150, 30, 52, 55, 56, 60-3, 60-4",6,2
417,Q2 077,Thảo Điền,Nhà chờ,Quận 2,,Ngã ba Thảo Điền,Xa Lộ Hà Nội,,Đang khai thác,106.738762,10.801309,TD NbTD XLHN,"06, 104, 150, 30, 52, 55, 56, 60-3, 60-4, 72-1",6,2
418,Q2 078,Cầu Đen,Nhà chờ,Quận 2,,Đối diện Cầu Đen,Xa Lộ Hà Nội,,Đang khai thác,106.73436,10.800451,CD DdCD XLHN,"06, 104, 150, 30, 52, 53, 55, 56, 60-3, 60-4, 72-1",6,2
419,QBTH 056,Cầu Sài Gòn,Trụ dừng,Quận Bình Thạnh,,24(597),Điện Biên Phủ,,Đang khai thác,106.719571,10.798893,CSG 24(597) DBP,"06, 104, 150, 43, 52, 55, 60-3, 60-4",6,2
420,QBTH 055,Khu Du lịch Văn Thánh,Nhà chờ,Quận Bình Thạnh,,152/72c(559),Điện Biên Phủ,,Đang khai thác,106.717227,10.800274,KDlVT 152/72c(559) DBP,"06, 10, 104, 150, 43, 44, 52, 55, 60-3, 60-4",6,2
421,QBTH 054,Đại học Hutech,Nhà chờ,Quận Bình Thạnh,,483,Điện Biên Phủ,,Đang khai thác,106.714856,10.801228,DhH 483 DBP,"06, 104, 14, 150, 19, 43, 44, 45, 52, 55, 60-3, 60-4, 72-1",6,2
423,QBTH 053,Cây xăng dầu,Trụ dừng,Quận Bình Thạnh,,419,Điện Biên Phủ,,Đang khai thác,106.712834,10.801697,Cxd 419 DBP,"06, 104, 14, 150, 19, 43, 44, 45, 52, 55, 60-4",6,2
368,QBTH 130,Trường trung học Gia Định,Trụ dừng,Quận Bình Thạnh,,221,Xô Viết Nghệ Tĩnh,,Đang khai thác,106.711037,10.79981,TthGD 221 XVNT,"05, 06, 14, 19, 44, 52, 61-6",6,2
367,QBTH 129,Trường Tiểu học Hồng Hà,Nhà chờ,Quận Bình Thạnh,,153,Xô Viết Nghệ Tĩnh,,Đang khai thác,106.710591,10.797328,TThHH 153 XVNT,"05, 06, 14, 19, 44, 52, 61-6",6,2
369,QBTH 128,Ngã ba Nguyễn Cửu Vân,Trụ dừng,Quận Bình Thạnh,,151,Xô Viết Nghệ Tĩnh,,Đang khai thác,106.709443,10.79511,NbNCV 151 XVNT,"05, 06, 14, 19, 52, 61-6",6,2
373,QBTH 127,Nhà thờ Thị Nghè,Trụ dừng,Quận Bình Thạnh,,79,Xô Viết Nghệ Tĩnh,,Đang khai thác,106.708054,10.793661,NtTN 79 XVNT,"05, 06, 14, 19, 52, 61-6",6,2
370,Q1 098,Thảo Cầm Viên,Nhà chờ,Quận 1,,2A,Nguyễn Thị Minh Khai,,Đang khai thác,106.705259,10.790694,TCV 2A NTMK,"05, 06, 14, 19, 52, 61-6",6,2
374,Q1 099,Đài truyền hình,Nhà chờ,Quận 1,,Đối diện 9,Nguyễn Thị Minh Khai,,Đang khai thác,106.702011,10.787157,Dth Dd9 NTMK,"05, 06, 14, 19, 45, 61-6",6,2
371,Q1 100,nhà thờ Mạc Ti Nho,Nhà chờ,Quận 1,Phường Đa Kao,16A,Nguyễn Thị Minh Khai,,Đang khai thác,106.701294,10.786397,ntMTN 16A NTMK,"05, 06, 14, 45, 52",6,2
372,Q1 101,Phùng Khắc Khoan,Trụ dừng,Quận 1,,2 - 4,Phùng Khắc Khoan,,Đang khai thác,106.698586,10.784048,PKK 2-4 PKK,"05, 06, 14, 52",6,2
378,Q3 085,Hồ Con Rùa,Trụ dừng,Quận 3,,24 - 26,Trần Cao Vân,,Đang khai thác,106.696411,10.783314,HCR 24-26 TCV,"05, 06, 14, 52",6,2
375,Q3 105,Sân Phan Đình Phùng,Nhà chờ,Quận 3,,8,Võ Văn Tần,Có,Đang khai thác,106.694402,10.781172,SPDP 8 VVT,"05, 06, 14",6,2
377,Q3 106,Bảo tàng chứng tích chiến tranh,Nhà chờ,Quận 3,,28,Võ Văn Tần,Có,Đang khai thác,106.69254,10.779143,Btctct 28 VVT,"05, 06, 120, 14, DL01",6,2
376,Q3 107,Trần Quốc Thảo,Nhà chờ,Quận 3,Phường 06,44,Võ Văn Tần,,Đang khai thác,106.691365,10.777889,TQT 44 VVT,"05, 06, 14",6,2
379,Q3 108,Đại học Mở thành phố HCM,Trụ dừng,Quận 3,,62,Võ Văn Tần,,Đang khai thác,106.69004,10.776418,DhMtpH 62 VVT,"05, 06, 14",6,2
381,Q3 005,Nguyễn Thị Minh Khai,Trụ dừng,Quận 3,,17,Bà Huyện Thanh Quan,,Đang khai thác,106.690186,10.775102,NTMK 17 BHTQ,"05, 06, 14",6,2
380,Q3 069,Cách Mạng tháng 8,Trụ dừng,Quận 3,,284,Nguyễn Thị Minh Khai,,Đang khai thác,106.689021,10.77342,CMt8 284 NTMK,"05, 06, 14, 38",6,2
383,Q3 070,Tôn Thất Tùng,Trụ dừng,Quận 3,,414,Nguyễn Thị Minh Khai,,Đang khai thác,106.686634,10.77079,TTT 414 NTMK,"05, 06, 14, 38",6,2
382,Q3 071,Bệnh viện Từ Dũ,Trụ dừng,Quận 3,,436,Nguyễn Thị Minh Khai,,Đang khai thác,106.684883,10.768946,BvTD 436 NTMK,"05, 06, 14, 38",6,2
89,Q3 072,Trung ương Hội Chữ thập đỏ TP,Nhà chờ,Quận 3,,464 - 466,Nguyễn Thị Minh Khai,,Đang khai thác,106.683657,10.767723,TuHCtdT 464-466 NTMK,"05, 06, 14, 27, 38, 53, 70-3",6,2
90,Q3 073,Nhà sách Minh Khai,Trụ dừng,Quận 3,,488,Nguyễn Thị Minh Khai,,Đang khai thác,106.68238,10.766395,NsMK 488 NTMK,"05, 06, 14, 27, 38, 53",6,2
425,Q5 073,Trường THPT Lê Hồng Phong,Nhà chờ,Quận 5,,235,Nguyễn Văn Cừ,,Đang khai thác,106.681946,10.764456,TTLHP 235 NVC,06,6,2
424,Q5 074,Đại học Khoa học Tự nhiên,Nhà chờ,Quận 5,,227,Nguyễn Văn Cừ,,Đang khai thác,106.682388,10.763354,DhKhTn 227 NVC,06,6,2
426,Q5 001,Đại học Sư Phạm,Nhà chờ,Quận 5,,280,An Dương Vương,,Đang khai thác,106.68267,10.76103,DhSP 280 ADV,"06, 139, 38, 45, 56",6,2
429,Q5 002,Chợ Bầu Sen,Trụ dừng,Quận 5,,370,An Dương Vương,,Đang khai thác,106.678764,10.759407,CBS 370 ADV,"06, 139, 38, 45, 56",6,2
427,Q5 003,Huỳnh Mẫn Đạt,Trụ dừng,Quận 5,,526,An Dương Vương,,Đang khai thác,106.675272,10.757984,HMD 526 ADV,"06, 139, 38, 45, 56",6,2
430,Q5 004,Chợ An Đông,Nhà chờ,Quận 5,,Đối diện số 3,An Dương Vương,,Đang khai thác,106.673534,10.757536,CAD Dds3 ADV,"06, 139, 56",6,2
428,Q5 005,Bệnh viện Nguyễn Tri Phương,Trụ dừng,Quận 5,,102C-D,An Dương Vương,,Đang khai thác,106.670653,10.756967,BvNTP 102C-D ADV,"06, 139, 56",6,2
432,Q5 068,Công viên Văn Lang,Trụ dừng,Quận 5,,132A,Nguyễn Tri Phương,,Đang khai thác,106.669613,10.757151,CvVL 132A NTP,"06, 07, 139, 150, 56, 59, 68",6,2
431,Q5 031,Công viên Văn Lang,Nhà chờ,Quận 5,,116A,Hùng Vương,,Đang khai thác,106.668566,10.757257,CvVL 116A HV,"06, 139, 56, 68, 91",6,2
433,Q5 017,Bệnh viện Phạm Ngọc Thạch,Nhà chờ,Quận 5,,120,Hồng Bàng,,Đang khai thác,106.664511,10.755897,BvPNT 120 HB,"06, 07, 139, 150, 56, 68, 70-3, 91",6,2
434,Q5 018,Hùng Vương Plaza,Nhà chờ,Quận 5,,132,Hồng Bàng,,Đang khai thác,106.661072,10.755196,HVP 132 HB,"06, 07, 08, 10, 139, 150, 56, 62, 68, 91",6,2
436,Q5 019,Bệnh viện Chợ Rẫy,Trụ dừng,Quận 5,,172,Hồng Bàng,,Đang khai thác,106.659501,10.754875,BvCR 172 HB,"06, 07, 08, 139, 150, 56, 62, 68, 91",6,2
435,Q5 020,Thuận Kiều Plaza,Nhà chờ,Quận 5,,Đối diện 385,Hồng Bàng,,Đang khai thác,106.657934,10.75458,TKP Dd385 HB,"06, 139, 150, 68, 91",6,2
438,Q5 021,Dương Tử Giang,Nhà chờ,Quận 5,,Đối diện 455-457,Hồng Bàng,,Đang khai thác,106.65552,10.754158,DTG Dd455-457 HB,"06, 139, 150, 68, 91",6,2
8,BX14,Bến xe Chợ Lớn,Bến xe,Quận 5,,GA HKXB CHO LON,Lê Quang Sung,,Đang khai thác,106.6525650024414,10.751253128051758,BxCL GHCL LQS,"01, 05, 06, 07, 09, 150, 23, 47, 56, 62-1, 62-10, 62-7, 62-8, 81, 94",6,2
8,BX14,Bến xe Chợ Lớn,Bến xe,Quận 5,,GA HKXB CHO LON,Lê Quang Sung,,Đang khai thác,106.6525650024414,10.751253128051758,BxCL GHCL LQS,"01, 05, 06, 07, 09, 150, 23, 47, 56, 62-1, 62-10, 62-7, 62-8, 81, 94",5,2
2393,Q6 096,Tháp Mười,Trụ dừng,Quận 6,,13C-13D,Tháp Mười,,Đang khai thác,106.653036,10.750326,TM 13C-13D TM,"05, 39, 47, 56",5,2
2,Q5 016,Chợ Kim Biên,Trụ dừng,Quận 5,,11-12,Hải Thượng Lãn Ông,,Đang khai thác,106.655075,10.750732,CKB 11-12 HTLO,"01, 05, 07, 25, 39, 47, 56",5,2
3,Q5 011,Bưu điện Quận 5,Ô sơn,Quận 5,,14-16,Châu Văn Liêm,,Đang khai thác,106.659203,10.751368,BdQ5 14-16 CVL,"01, 05, 07, 08, 45, 56, 62",5,2
5,Q5 012,Rạp Đại Quang,Nhà chờ,Quận 5,,68,Châu Văn Liêm,,Đang khai thác,106.658937,10.752566,RDQ 68 CVL,"01, 05, 07, 08, 10, 45, 56, 62",5,2
279,Q5 081,Bệnh viện Chợ Rẫy,Nhà chờ,Quận 5,,Đối diện 59C,Thuận Kiều,,Đang khai thác,106.65839,10.757109,BvCR Dd59C TK,"05, 45",5,2
281,Q5 043,Bệnh viện Chợ Rẫy,Nhà chờ,Quận 5,,201A,Nguyễn Chí Thanh,,Đang khai thác,106.660128,10.758079,BvCR 201A NCT,"05, 45, 62, 94",5,2
282,Q5 044,Lý Thường Kiệt,Trụ dừng,Quận 5,,195B,Nguyễn Chí Thanh,,Đang khai thác,106.662006,10.758443,LTK 195B NCT,"05, 45",5,2
283,Q5 045,Chung cư 155 Nguyễn Chí Thanh,Nhà chờ,Quận 5,,153-155,Nguyễn Chí Thanh,,Đang khai thác,106.666056,10.759281,Cc155NCT 153-155 NCT,"05, 45",5,2
284,Q5 046,Trường Kinh tế Công nghệ,Nhà chờ,Quận 5,,131,Nguyễn Chí Thanh,,Đang khai thác,106.668019,10.759649,TKtCn 131 NCT,"05, 45",5,2
285,Q10 023,Trường Khiếm thị Nguyễn Đình Chiểu,Trụ dừng,Quận 10,,417,Ngô Gia Tự,,Đang khai thác,106.669511,10.760582,TKtNDC 417 NGT,"05, 150",5,2
286,Q10 024,Hòa Hảo,Trụ dừng,Quận 10,,277,Ngô Gia Tự,,Đang khai thác,106.671093,10.762933,HH 277 NGT,"05, 150",5,2
288,Q10 020,Chợ Lê Hồng Phong,Nhà chờ,Quận 10,,419,Lê Hồng Phong,,Đang khai thác,106.675444,10.764703,CLHP 419 LHP,"05, 91",5,2
3164,BX13,Lê Hồng Phong,Bến xe,Quận 5,,ĐẦU BẾN LÊ HỒNG PHONG,Lê Hồng Phong,,Đang khai thác,106.676592,10.761252,LHP DBLHP LHP,"05, 53",5,2
287,Q1 088,Phạm Viết Chánh,Nhà chờ,Quận 1,,Đối diện 492,Nguyễn Thị Minh Khai,,Đang khai thác,106.682533,10.766214,PVC Dd492 NTMK,"05, 06, 14, 38, 69",5,2
290,Q1 089,Bệnh viện Từ Dũ,Nhà chờ,Quận 1,,Đối diện 446,Nguyễn Thị Minh Khai,,Đang khai thác,106.685024,10.768709,BvTD Dd446 NTMK,"05, 06, 14, 38, 69",5,2
289,Q1 090,Tôn Thất Tùng,Trụ dừng,Quận 1,,99,Nguyễn Thị Minh Khai,,Đang khai thác,106.687943,10.77185,TTT 99 NTMK,"05, 06, 14, 38, 69",5,2
292,Q1 091,Sở Y Tế,Nhà chờ,Quận 1,,Đối diện 214-216,Nguyễn Thị Minh Khai,,Đang khai thác,106.690158,10.774179,SYT Dd214-216 NTMK,"05, 06, 14, 28",5,2
242,Q1 092,Nhà Văn Hóa Lao Động,Nhà chờ,Quận 1,,Đối diện số 138,Nguyễn Thị Minh Khai,,Đang khai thác,106.692757,10.777097,NVHLD Dds138 NTMK,"05, 06, 14, 28",5,2
291,Q1 093,Pasteur,Nhà chờ,Quận 1,,43 - 45 - 47,Nguyễn Thị Minh Khai,,Đang khai thác,106.696434,10.781031,P 43-45-47 NTMK,"05, 06, 14, 31",5,2
294,Q1 094,Mạc Đỉnh Chi,Trụ dừng,Quận 1,,21,Nguyễn Thị Minh Khai,,Đang khai thác,106.699503,10.784191,MDC 21 NTMK,"05, 06, 14, 45, 52",5,2
296,Q1 095,Đinh Tiên Hoàng,Trụ dừng,Quận 1,,15C-15D,Nguyễn Thị Minh Khai,,Đang khai thác,106.70137,10.786146,DTH 15C-15D NTMK,"05, 06, 14, 45, 52",5,2
293,Q1 096,Thảo Cầm Viên,Nhà chờ,Quận 1,,3,Nguyễn Thị Minh Khai,,Đang khai thác,106.70459,10.789598,TCV 3 NTMK,"05, 06, 14, 19, 52, 61-6",5,2
295,Q1 097,Cầu Thị Nghè,Nhà chờ,Quận 1,,1A,Nguyễn Thị Minh Khai,,Đang khai thác,106.705597,10.790669,CTN 1A NTMK,"05, 06, 14, 19, 52, 61-6",5,2
298,QBTH 126,Nhà Thờ Thị Nghè,Nhà chờ,Quận Bình Thạnh,,22 B,Xô Viết Nghệ Tĩnh,,Đang khai thác,106.708156,10.793418,NTTN 22B XVNT,"05, 06, 14, 19, 52, 61-6",5,2
297,QBTH 125,Trung tâm Dưỡng Lão,Trụ dừng,Quận Bình Thạnh,,138,Xô Viết Nghệ Tĩnh,,Đang khai thác,106.71057,10.796533,TtDL 138 XVNT,"05, 06, 14, 19, 44, 52, 61-6",5,2
300,QBTH 124,Trường trung học Gia Định,Trụ dừng,Quận Bình Thạnh,,246,Xô Viết Nghệ Tĩnh,,Đang khai thác,106.711203,10.798999,TthGD 246 XVNT,"05, 06, 14, 19, 44, 52, 61-6",5,2
299,QBTH 123,Ngã Ba Hàng Xanh,Biển treo,Quận Bình Thạnh,,334-336,Xô Viết Nghệ Tĩnh,,Đang khai thác,106.711509,10.803262,NBHX 334-336 XVNT,"05, 08, 14, 146, 19, 24, 43, 44, 45, 60-3, 60-4, 61-6, 91, 93",5,2
302,QBTH 122,Đài Liệt sĩ,Biển treo,Quận Bình Thạnh,,504,Xô Viết Nghệ Tĩnh,,Đang khai thác,106.711965,10.808831,DLs 504 XVNT,"05, 08, 14, 146, 19, 24, 44, 45, 60-3, 60-4, 61-6, 91, 93",5,2
301,QBTH 135,Siêu thị Coop Mart,Trụ dừng,Quận Bình Thạnh,,222/13A (52),Quốc lộ 13,,Đang khai thác,106.71241,10.810791,StCM 222/13A( Ql13,"05, 08, 14, 146, 19, 24, 43, 45, 60-3, 60-4, 61-6, 64, 93",5,2
305,QBTH 138,Cổng ra - Bến xe Miền Đông 1,Trụ dừng,Quận Bình Thạnh,,152,Quốc lộ 13,,Đang khai thác,106.712791,10.813853,Cr-BxMD1 152 Ql13,"05, 146, 43, 45, 60-3, 60-4, 61-6, 64, 91, 93",5,2
304,QTD 198,Trường TH Bình Triệu,Trụ dừng,Quận Thủ Đức,Phường Hiệp Bình Chánh,136,Quốc lộ 13,,Đang khai thác,106.71434,10.829247,TTBT 136 Ql13,"05, 19, 61-6, 91",5,2
309,QTD 199,Trạm xăng dầu,Trụ dừng,Quận Thủ Đức,Phường Hiệp Bình Chánh,206 Sacombank (64/1),Quốc lộ 13,,Đang khai thác,106.714149,10.832655,Txd 206S( Ql13,"05, 19, 61-6",5,2
306,QTD 200,Cầu Ông Dầu,Trụ dừng,Quận Thủ Đức,Phường Hiệp Bình Phước,416,Quốc lộ 13,,Đang khai thác,106.714012,10.836135,COD 416 Ql13,"05, 19, 61-6",5,2
310,QTD 201,Đường số 3,Trụ dừng,Quận Thủ Đức,Phường Hiệp Bình Phước,486,Quốc lộ 13,,Đang khai thác,106.715317,10.838815,Ds3 486 Ql13,"05, 19, 61-6",5,2
312,QTD 202,Đường số 4,Trụ dừng,Quận Thủ Đức,Phường Hiệp Bình Phước,510,Quốc lộ 13,,Đang khai thác,106.71714,10.841072,Ds4 510 Ql13,"05, 19, 61-6",5,2
307,QTD 203,Cân Nhơn Hòa,Trụ dừng,Quận Thủ Đức,Phường Hiệp Bình Phước,516 - Cân Nhơn Hòa,Quốc lộ 13,,Đang khai thác,106.718307,10.844687,CNH 516-CNH Ql13,"05, 19, 61-6, 91",5,2
308,QTD 204,Ngã 3 Hiệp Bình,Trụ dừng,Quận Thủ Đức,Phường Hiệp Bình Phước,574 (1/42A),Quốc lộ 13,,Đang khai thác,106.718704,10.848944,N3HB 574( Ql13,"05, 19, 61-6",5,2
314,QTD 205,Ngã 3 Đường Hiệp Bình,Trụ dừng,Quận Thủ Đức,Phường Hiệp Bình Phước,628 (620),Quốc lộ 13,,Đang khai thác,106.721222,10.852921,N3DHB 628( Ql13,"05, 19, 61-6, 89",5,2
316,QTD 206,Trạm y tế Hiệp Bình Phước,Trụ dừng,Quận Thủ Đức,Phường Hiệp Bình Phước,5/12 (702),Quốc lộ 13,,Đang khai thác,106.722504,10.855787,TytHBP 5/12( Ql13,"05, 19, 61-6, 89",5,2
311,QTD 207,UBND P.Hiệp Bình Phước,Trụ dừng,Quận Thủ Đức,Phường Hiệp Bình Phước,750/3 ,Quốc lộ 13,,Đang khai thác,106.723663,10.858809,UPBP 750/3 Ql13,"05, 19, 61-6, 89",5,2
313,QTD 208,Hồ Bơi,Trụ dừng,Quận Thủ Đức,Phường Hiệp Bình Phước,784,Quốc lộ 13,,Đang khai thác,106.724564,10.861172,HB 784 Ql13,"05, 19, 61-6, 89",5,2
318,QTD 209,Ngã 4 Bình Phước,Trụ dừng,Quận Thủ Đức,Phường Hiệp Bình Phước,824 (828),Quốc lộ 13,,Đang khai thác,106.724792,10.863845,N4BP 824( Ql13,"05, 19, 89, 91",5,2
315,QTD 159,Ngã ba mũi tàu đường Gò Dưa ,Trụ dừng,Quận Thủ Đức,Phường Tam Bình,120,Quốc lộ 1,,Đang khai thác,106.727425,10.86689,NbmtdGD 120 Ql1,"05, 19, 29, 33, 60-1, 89",5,2
320,QTD 160,Chợ Đầu Mối,Trụ dừng,Quận Thủ Đức,Phường Tam Bình,160,Quốc lộ 1,,Đang khai thác,106.730198,10.86831,CDM 160 Ql1,"05, 19, 29, 33, 60-1, 89",5,2
317,QTD 161,Chợ Tam Bình,Trụ dừng,Quận Thủ Đức,,Chợ Tam Bình,Quốc lộ 1,,Đang khai thác,106.73538,10.87086,CTB CTB Ql1,"05, 19, 33, 60-1",5,2
322,QTD 162,Hồ Bơi,Trụ dừng,Quận Thủ Đức,Phường Tam Bình,376,Quốc lộ 1,,Đang khai thác,106.739666,10.871766,HB 376 Ql1,"05, 19, 33, 60-1",5,2
319,QTD 163,Chợ Tam Hải,Trụ dừng,Quận Thủ Đức,Phường Tam Bình,450,Quốc lộ 1,,Đang khai thác,106.744081,10.872935,CTH 450 Ql1,"05, 19, 33, 60-1",5,2
321,QTD 164,Cầu vượt Sóng Thần,Nhà chờ,Quận Thủ Đức,,Đối diện 275-Mitsubishi ,Quốc lộ 1,,Đang khai thác,106.747128,10.873905,CvST Dd275-Mitsubishi Ql1,"05, 19, 33, 60-1",5,2
323,QTD 165,Bến xe Lam Hồng,Trụ dừng,Quận Thủ Đức,,6/8,Quốc lộ 1,,Đang khai thác,106.75562,10.875706,BxLH 6/8 Ql1,"05, 19, 33, 60-1",5,2
325,QTD 166,Giày da Thái Bình,Trụ dừng,Quận Thủ Đức,,Đối diện 10/19 (20/8),Quốc lộ 1,,Đang khai thác,106.757466,10.875353,GdTB Dd10/19( Ql1,"05, 19, 33, 60-1",5,2
324,QTD 168,Cầu vượt Linh Xuân,Trụ dừng,Quận Thủ Đức,Phường Linh Trung,Kho 856,Quốc lộ 1,,Đang khai thác,106.762476,10.873973,CvLX K856 Ql1,"05, 19, 33, 60-1",5,2
330,QTD 106,Cầu vượt Linh Xuân,Trụ dừng,Quận Thủ Đức,Phường Linh Xuân,4,Quốc lộ 1K,,Đang khai thác,106.765579,10.874434,CvLX 4 Ql1K,"05, 61-1",5,2
327,QTD 107,Chợ Linh Xuân,Trụ dừng,Quận Thủ Đức,Phường Linh Xuân,74-76,Quốc lộ 1K,,Đang khai thác,106.766628,10.877382,CLX 74-76 Ql1K,"05, 61-1",5,2
329,QTD 108,Thánh thất Cao Đài Linh Xuân,Trụ dừng,Quận Thủ Đức,Phường Linh Xuân,160,Quốc lộ 1K,,Đang khai thác,106.768066,10.88015,TtCDLX 160 Ql1K,"05, 61-1",5,2
332,QTD 109,Đường số 8,Trụ dừng,Quận Thủ Đức,Phường Linh Xuân,202-204,Quốc lộ 1K,,Đang khai thác,106.769487,10.881807,Ds8 202-204 Ql1K,"05, 61-1",5,2
331,QTD 110,Chùa Từ Quang,Trụ dừng,Quận Thủ Đức,Phường Linh Xuân,Chùa Từ Quang,Quốc lộ 1K,,Đang khai thác,106.772568,10.885452,CTQ CTQ Ql1K,"05, 61-1",5,2
333,QTD 111,Big C,Trụ dừng,Quận Thủ Đức,Phường Linh Xuân,280A,Quốc lộ 1K,,Đang khai thác,106.774879,10.887267,BC 280A Ql1K,"05, 61-1",5,2
7208,BXLT Bien Hoa,Bến xe Biên Hòa,Bến xe,Ngoại thành,,4 Nguyễn Ái Quốc,Quốc lộ 1K,Có,Đang khai thác,106.808953,10.954127,BxBH 4NAQ Ql1K,"05, 60-1",5,2
538,BX87,Đại học Quốc gia,Bến xe,Quận Thủ Đức,,Bến xe buýt Khu A Đô thị Quốc gia,Đường nội bộ Đại học Quốc gia,,Đang khai thác,106.8020248413086,10.873805046081543,DhQg BxbKADtQg DnbDhQg,"08, 10, 19",8,16
574,QTD 177,Khu DL Suối Tiên,Nhà chờ,Quận Thủ Đức,Phường Linh Trung,9/29,Quốc lộ 1,,Đang khai thác,106.801116,10.86605,KDST 9/29 Ql1,"08, 10, 150, 19, 30, 33, 53, 60-1, 60-2, 60-3, 60-4, 76, 93, 99",8,16
4559,QTD 197,Câu vượt Trạm 2,Nhà chờ,Quận Thủ Đức,Phường Linh Trung,Câu vượt Trạm 2,Quốc lộ 1,,Đang khai thác,106.797318,10.8639,CvT2 CvT2 Ql1,"08, 60-1, 60-4, 76",8,16
398,QTD 074,Khu Công nghệ cao Q9,Trụ dừng,Quận Thủ Đức,Phường Linh Trung,Đối diện Khu công nghệ cao,Xa Lộ Hà Nội,,Đang khai thác,106.791138,10.860218,KCncQ DdKcnc XLHN,"06, 08, 150, 30, 52, 60-3, 60-4, 76",8,16
401,QTD 076,Công ty Cocacola,Trụ dừng,Quận Thủ Đức,Phường Linh Trung,Công ty Cocacola,Xa Lộ Hà Nội,,Đang khai thác,106.784964,10.856483,CtC CtC XLHN,"06, 08, 150, 30, 52, 60-3, 60-4, 76",8,16
400,QTD 065,Trường Đại học Sư phạm Kỹ thuật,Nhà chờ,Quận Thủ Đức,Phường Linh Chiểu,1,Võ Văn Ngân,,Đang khai thác,106.772105,10.849871,TDhSpKt 1 VVN,"06, 08, 141, 56, 57, 89",8,16
402,QTD 066,Siêu thị Nguyễn Kim,Trụ dừng,Quận Thủ Đức,Phường Linh Chiểu,307 (312),Võ Văn Ngân,,Đang khai thác,106.768837,10.849805,StNK 307( VVN,"06, 08, 141, 56, 57, 61-1, 89",8,16
403,QTD 067,Nhà thiếu nhi Thủ Đức,Nhà chờ,Quận Thủ Đức,Phường Linh Chiểu,Nhà thiếu nhi,Võ Văn Ngân,,Đang khai thác,106.766794,10.850556,NtnTD Ntn VVN,"06, 08, 141, 56, 57, 61-1, 89",8,16
404,QTD 068,Cao đẳng xây dựng 2,Trụ dừng,Quận Thủ Đức,Phường Linh Chiểu,233 (253),Võ Văn Ngân,,Đang khai thác,106.764101,10.850808,Cdxd2 233( VVN,"06, 08, 141, 56, 57, 61-1, 89",8,16
405,QTD 069,Ngã ba Chương Dương,Nhà chờ,Quận Thủ Đức,,Đối diện 100,Võ Văn Ngân,,Đang khai thác,106.760201,10.850645,NbCD Dd100 VVN,"06, 08, 141, 56, 57, 61-1, 89",8,16
3277,QTD 145,Chợ Thủ Đức,Trụ dừng,Quận Thủ Đức,Phường Linh Tây,20-21,Lê Văn Ninh,,Đang khai thác,106.754005,10.850327,CTD 20-21 LVN,"08, 57, 93",8,16
575,QTD 146,Trạm Cầu ngang,Biển treo,Quận Thủ Đức,,569,Kha Vạn Cân,,Đang khai thác,106.751587,10.847199,TCn 569 KVC,"08, 57, 93",8,16
578,QTD 147,Công an Phường Linh Đông,Trụ dừng,Quận Thủ Đức,Phường Linh Đông,525,Kha Vạn Cân,,Đang khai thác,106.749763,10.845116,CaPLD 525 KVC,"08, 57, 93",8,16
577,QTD 148,Trạm xăng 27-7,Biển treo,Quận Thủ Đức,Phường Linh Đông,459 (Đối diện 624),Kha Vạn Cân,,Đang khai thác,106.74659,10.841721,Tx27-7 459(d624) KVC,"08, 57, 93",8,16
579,QTD 149,Trường Cao đẳng Vinatex,Biển treo,Quận Thủ Đức,,403,Kha Vạn Cân,,Tạm ngưng khai thác,106.744548,10.840851,TCdV 403 KVC,"08, 57, 93",8,16
583,QTD 153,Nút giao Linh Đông -PVĐ,Nhà chờ,Quận Thủ Đức,Phường Linh Đông,Trụ chiếu sáng A226,Phạm Văn Đồng,Có,Đang khai thác,106.742682,10.84077,NgLD-PVD TcsA PVD,"08, 50, 57, 93",8,16
585,QTD 154,Chùa An Lạc,Nhà chờ,Quận Thủ Đức,Phường Hiệp Bình Chánh,Ngã tư Hiệp Bình - PVĐ,Phạm Văn Đồng,Có,Đang khai thác,106.732328,10.837284,CAL NtHB-P PVD,"08, 50, 89, 93",8,16
584,QTD 155,Cá sấu Hoa Cà,Nhà chờ,Quận Thủ Đức,Phường Hiệp Bình Chánh,Trụ chiếu sáng B194,Phạm Văn Đồng,Có,Đang khai thác,106.727916,10.833634,CsHC TcsB PVD,"08, 50, 89, 93",8,16
587,QTD 156,Đường số 20,Nhà chờ,Quận Thủ Đức,Phường Hiệp Bình Chánh,218,Phạm Văn Đồng,Có,Đang khai thác,106.720988,10.828232,Ds20 218 PVD,"08, 50, 93",8,16
586,QTD 157,Ngã tư Bình Triệu,Trụ dừng,Quận Thủ Đức,Phường Hiệp Bình Chánh,599,Phạm Văn Đồng,,Đang khai thác,106.715848,10.826557,NtBT 599 PVD,"08, 50, 93",8,16
361,QBTH 038,Cổng vào-Bến xe Miền Đông,Nhà chờ,Quận Bình Thạnh,,78/3,Đinh Bộ Lĩnh,,Đang khai thác,106.711257,10.816661,CvxMD 78/3 DBL,"05, 08, 14, 146, 19, 43, 60-3, 60-4, 61-6, 91, 93",8,16
362,QBTH 039,Ngã Tư Nguyễn Xí,Trụ dừng,Quận Bình Thạnh,,291-293,Đinh Bộ Lĩnh,,Đang khai thác,106.709223,10.812625,NTNX 291-293 DBL,"05, 08, 146, 24, 43, 60-3, 60-4, 61-6, 93",8,16
363,QBTH 040,Ngã Tư Chu Văn An,Trụ dừng,Quận Bình Thạnh,,183,Đinh Bộ Lĩnh,,Đang khai thác,106.709143,10.809759,NTCVA 183 DBL,"05, 08, 146, 24, 43, 60-3, 60-4, 61-6, 93",8,16
364,QBTH 041,Cầu Đinh Bộ Lĩnh,Trụ dừng,Quận Bình Thạnh,,85,Đinh Bộ Lĩnh,,Đang khai thác,106.709341,10.806908,CDBL 85 DBL,"05, 08, 146, 24, 43, 60-3, 60-4, 61-6, 93",8,16
365,QBTH 042,Trạm xăng dầu,Trụ dừng,Quận Bình Thạnh,,17,Đinh Bộ Lĩnh,,Đang khai thác,106.709395,10.804421,Txd 17 DBL,"05, 08, 146, 24, 43, 60-3, 60-4, 61-6, 93",8,16
588,QBTH 002,Nhà thờ Hàng Xanh,Trụ dừng,Quận Bình Thạnh,,96,Bạch Đằng,,Đang khai thác,106.708032,10.803177,NtHX 96 BD,"08, 104, 146, 24, 55, 91",8,16
589,QBTH 003,Chùa Bồ Đề,Trụ dừng,Quận Bình Thạnh,,246,Bạch Đằng,,Đang khai thác,106.704015,10.803483,CBD 246 BD,"08, 104, 146, 24, 55, 91",8,16
590,QBTH 004,Tòa Án nhân dân Quận Bình Thạnh,Trụ dừng,Quận Bình Thạnh,,288,Bạch Đằng,,Đang khai thác,106.701187,10.803873,TAndQBT 288 BD,"08, 104, 146, 24, 55, 91",8,16
592,QBTH 005,Chợ Bà Chiểu,Trụ dừng,Quận Bình Thạnh,,368,Bạch Đằng,,Đang khai thác,106.699374,10.803125,CBC 368 BD,"08, 104, 146, 24, 55, 91",8,16
591,QBTH 115,UBND Quận Bình Thạnh,Trụ dừng,Quận Bình Thạnh,Phường 14,6-8,Phan Đăng Lưu,,Đang khai thác,106.695786,10.802819,UQBT 6-8 PDL,"08, 104, 18, 31, 36, 55, 91",8,16
594,QBTH 116,Bệnh Viện Gia Định,Nhà chờ,Quận Bình Thạnh,Phường 12,10,Phan Đăng Lưu,,Đang khai thác,106.693543,10.803119,BVGD 10 PDL,"08, 104, 146, 55, 64",8,16
593,QBTH 117,PCCC quận Bình Thạnh,Nhà chờ,Quận Bình Thạnh,,14-16,Phan Đăng Lưu,,Đang khai thác,106.691741,10.803362,PqBT 14-16 PDL,"08, 104, 55, 64",8,16
595,QPN 019,Bệnh viện Phước An,Trụ dừng,Quận Phú Nhuận,,36A,Phan Đăng Lưu,,Đang khai thác,106.687637,10.803878,BvPA 36A PDL,"08, 104, 55, 64",8,16
596,QPN 020,Đại học Văn Hiến,Trụ dừng,Quận Phú Nhuận,,94,Phan Đăng Lưu,,Đang khai thác,106.686119,10.804078,DhVH 94 PDL,"08, 104, 55, 64",8,16
597,QPN 021,Ngã Tư Thích Quảng Đức,Trụ dừng,Quận Phú Nhuận,,124,Phan Đăng Lưu,,Đang khai thác,106.683608,10.802529,NTTQD 124 PDL,"08, 104, 55, 64",8,16
598,QPN 022,Ngã tư Phan Xích Long,Trụ dừng,Quận Phú Nhuận,,172,Phan Đăng Lưu,,Đang khai thác,106.681892,10.80088,NtPXL 172 PDL,"08, 104, 55, 64",8,16
599,QPN 010,Ngã tư Phú Nhuận,Trụ dừng,Quận Phú Nhuận,,24,Hoàng Văn Thụ,,Đang khai thác,106.679236,10.799325,NtPN 24 HVT,"08, 104, 64",8,16
601,QPN 011,Siêu thị Big C,Nhà chờ,Quận Phú Nhuận,,202,Hoàng Văn Thụ,,Đang khai thác,106.669559,10.800153,StBC 202 HVT,"08, 104, 64",8,16
256,QTB 099,Cổng trước SVĐ Quân Khu 7,Nhà chờ,Quận Tân Bình,,A2 (Sân vận động Quân khu 7),Phan Đình Giót,,Đang khai thác,106.66678,10.800848,CtSQK7 A(vdQk7) PDG,"04, 07, 08, 104, 109, 152, 64",8,16
257,QTB 108,Công viên Hoàng Văn Thụ,Nhà chờ,Quận Tân Bình,,Công viên Hoàng Văn Thụ,Phan Thúc Duyện,,Đang khai thác,106.664221,10.802403,CvHVT CvHVT PTD,"04, 08, 104, 64",8,16
258,QTB 107,Vòng xoay Lăng Cha Cả,Nhà chờ,Quận Tân Bình,,20,Trần Quốc Hoàn,,Đang khai thác,106.662312,10.801365,VxLCC 20 TQH,"04, 08, 103, 104, 109, 148, 152, 50, 59, 64",8,16
600,QTB 038,Vòng xoay Lăng Cha Cả,Trụ dừng,Quận Tân Bình,,288-290,Hoàng Văn Thụ,,Đang khai thác,106.659071,10.798725,VxLCC 288-290 HVT,"08, 103, 145, 148, 50, 59, 64",8,16
602,QTB 039,Công an Quận Tân Bình,Trụ dừng,Quận Tân Bình,,340H,Hoàng Văn Thụ,,Đang khai thác,106.657425,10.79717,CaQTB 340H HVT,"08, 103, 145, 148, 50, 59, 64",8,16
604,QTB 064,Hội Chợ Triển lãm Tân Bình,Trụ dừng,Quận Tân Bình,,20 (B9),Xuân Diệu,,Đang khai thác,106.655145,10.796122,HCTlTB 20( XD,"08, 103, 145, 148, 50, 59, 64",8,16
603,QTB 065,Trường Phạm Ngũ Lão,Trụ dừng,Quận Tân Bình,,149 (E62),Xuân Hồng,,Đang khai thác,106.654066,10.796032,TPNL 149( XH,"08, 103, 145, 148, 30, 50, 59, 64, 65, 70-3",8,16
606,QTB 066,Cây xăng Đôi,Trụ dừng,Quận Tân Bình,,23,Xuân Hồng,,Đang khai thác,106.652184,10.794256,CxD 23 XH,"08, 103, 145, 148, 30, 50, 59, 64, 65, 70-3",8,16
605,QTB 029,Bệnh viện Thống Nhất,Trụ dừng,Quận Tân Bình,,733-739,Lý Thường Kiệt,,Đang khai thác,106.6528,10.792122,BvTN 733-739 LTK,"08, 145, 148, 50, 59",8,16
608,QTB 030,Bệnh viện chỉnh hình và phục hồi chức năng,Trụ dừng,Quận Tân Bình,,589 ,Lý Thường Kiệt,,Đang khai thác,106.652806,10.788718,Bvchvphcn 589 LTK,"08, 50, 59, 70-3",8,16
607,QTB 031,Chợ Tân Bình,Nhà chờ,Quận Tân Bình,,Chợ Tân Bình,Lý Thường Kiệt,,Đang khai thác,106.653584,10.786131,CTB CTB LTK,"08, 50, 59, 70-3, 94",8,16
610,QTB 032,Siêu thị Nguyễn Kim - CMC Tân Bình,Nhà chờ,Quận Tân Bình,,79B (siêu thị CMC Tân Bình),Lý Thường Kiệt,,Đang khai thác,106.654571,10.782695,StNK-CTB 79B(tCTB LTK,"08, 50, 59, 70-3, 94",8,16
609,QTB 033,Trường Nguyễn Thái Bình,Trụ dừng,Quận Tân Bình,,349 (74),Lý Thường Kiệt,,Đang khai thác,106.655609,10.779233,TNTB 349( LTK,"08, 50, 59, 70-3",8,16
612,Q11 016,Bưu Điện Phú Thọ,Nhà chờ,Quận 11,,285A,Lý Thường Kiệt,,Đang khai thác,106.656693,10.775314,BDPT 285A LTK,"08, 50, 59",8,16
611,Q11 017,Đại Học Bách Khoa(cổng trước),Trụ dừng,Quận 11,,239,Lý Thường Kiệt,,Đang khai thác,106.657829,10.771331,DHBKt 239 LTK,"08, 59, 70-3, 94",8,16
613,Q11 018,Bệnh viện Trưng Vương,Nhà chờ,Quận 11,,Đối diện 266,Lý Thường Kiệt,,Đang khai thác,106.658295,10.769639,BvTV Dd266 LTK,"08, 103, 70-3",8,16
614,Q11 019,Điện Lực Phú Thọ (Nhà hàng phong lan),Nhà chờ,Quận 11,,215C,Lý Thường Kiệt,,Đang khai thác,106.659363,10.765792,DLPT(hpl 215C LTK,"08, 103, 70-3",8,16
615,Q11 020,Chợ Nhật Tảo,Nhà chờ,Quận 11,,151,Lý Thường Kiệt,,Đang khai thác,106.660484,10.761718,CNT 151 LTK,"08, 70-3, 94",8,16
616,Q5 034,Bệnh viện Hùng Vương,Nhà chờ,Quận 5,,Hông Bệnh viện Hùng Vương,Lý Thường Kiệt,,Đang khai thác,106.66221,10.755702,BvHV HBvHV LTK,"08, 62",8,16
434,Q5 018,Hùng Vương Plaza,Nhà chờ,Quận 5,,132,Hồng Bàng,,Đang khai thác,106.661072,10.755196,HVP 132 HB,"06, 07, 08, 10, 139, 150, 56, 62, 68, 91",8,16
436,Q5 019,Bệnh viện Chợ Rẫy,Trụ dừng,Quận 5,,172,Hồng Bàng,,Đang khai thác,106.659501,10.754875,BvCR 172 HB,"06, 07, 08, 139, 150, 56, 62, 68, 91",8,16
397,Q5 013,Rạp Đại Quang,Nhà chờ,Quận 5,,81,Châu Văn Liêm,,Đang khai thác,106.658792,10.752445,RDQ 81 CVL,"05, 07, 08, 45, 56, 62",8,16
137,Q5 014,Bưu điện Quận 5,Ô sơn,Quận 5,,13-15,Châu Văn Liêm,,Đang khai thác,106.658894,10.751381,BdQ5 13-15 CVL,"01, 05, 07, 08, 45, 56, 62",8,16
617,Q8 110,Tùng Thiện Vương,Trụ dừng,Quận 8,,388,Tùng Thiện Vương,,Đang khai thác,106.656926,10.74483,TTV 388 TTV,"08, 25, 45, 46, 47, 62",8,16
618,Q8 069,Chùa Pháp Quang,Trụ dừng,Quận 8,,94,Quốc lộ 50,,Đang khai thác,106.656142,10.738642,CPQ 94 Ql50,"08, 25, 45, 47, 59, 62",8,16
619,Q8 070,Bùi Minh Trực,Ô sơn,Quận 8,,224,Quốc lộ 50,,Đang khai thác,106.656126,10.73646,BMT 224 Ql50,"08, 25, 45, 47, 59, 62",8,16
496,BX 20,Bến xe buýt Quận 8,Bến xe,Quận 8,,BẾN XE BUÝT QUẬN 8,Quốc lộ 50,,Đang khai thác,106.656357,10.733545,BxbQ8 BXBQ8 Ql50,"08, 22, 25, 34, 59, 62, 62-11, 62-9",8,16
7208,BXLT Bien Hoa,Bến xe Biên Hòa,Bến xe,Ngoại thành,,4 Nguyễn Ái Quốc,Quốc lộ 1K,Có,Đang khai thác,106.808953,10.954127,BxBH 4NAQ Ql1K,"05, 60-1",5,1
334,QTD 112,Big C,Trụ dừng,Quận Thủ Đức,Phường Linh Xuân,Kế 251,Quốc lộ 1K,,Đang khai thác,106.774583,10.887349,BC K251 Ql1K,"05, 61-1",5,1
335,QTD 113,Chùa Từ Quang,Trụ dừng,Quận Thủ Đức,Phường Linh Xuân,231,Quốc lộ 1K,,Đang khai thác,106.772271,10.885494,CTQ 231 Ql1K,"05, 61-1",5,1
336,QTD 114,Đường số 8,Trụ dừng,Quận Thủ Đức,Phường Linh Xuân,167,Quốc lộ 1K,,Đang khai thác,106.769396,10.882096,Ds8 167 Ql1K,"05, 61-1",5,1
338,QTD 115,Thành thất Cao Đài Linh Xuân,Trụ dừng,Quận Thủ Đức,,Thành thất Cao Đài Linh Xuân,Quốc lộ 1K,,Đang khai thác,106.767744,10.880158,TtCDLX TtCDLX Ql1K,"05, 61-1",5,1
337,QTD 116,Chợ Linh Xuân,Trụ dừng,Quận Thủ Đức,Phường Linh Xuân,Chợ Linh Xuân,Quốc lộ 1K,,Đang khai thác,106.766403,10.877611,CLX CLX Ql1K,"05, 61-1",5,1
340,QTD 117,Cầu vượt Linh Xuân,Ô sơn,Quận Thủ Đức,,13-15,Quốc lộ 1K,,Đang khai thác,106.765366,10.874279,CvLX 13-15 Ql1K,"05, 61-1",5,1
339,QTD 187,Cầu vượt Linh Xuân,Trụ dừng,Quận Thủ Đức,Phường Linh Xuân,467B,Quốc lộ 1,,Đang khai thác,106.762095,10.874474,CvLX 467B Ql1,"05, 19, 33, 60-1",5,1
341,QTD 188,Giày Thái Bình-Bình Đường,Trụ dừng,Quận Thủ Đức,,467B,Quốc lộ 1,,Không có,106.758689,10.875454,GTBD 467B Ql1,"05, 19, 33, 60-1",5,1
343,QTD 189,Giày Thái Bình,Trụ dừng,Quận Thủ Đức,Phường Trường Thọ,Đối diện 22/8,Quốc lộ 1,,Đang khai thác,106.757305,10.875738,GTB Dd22/8 Ql1,"05, 19, 33",5,1
342,QTD 190,Bến xe Lam Hồng,Trụ dừng,Quận Thủ Đức,,12A/28,Quốc lộ 1,,Đang khai thác,106.755631,10.876049,BxLH 12A/28 Ql1,"05, 19, 33, 60-1",5,1
344,QTD 191,Cầu vượt Sóng Thần,Nhà chờ,Quận Thủ Đức,,275,Quốc lộ 1,,Đang khai thác,106.746528,10.874115,CvST 275 Ql1,"05, 19, 33, 60-1",5,1
346,QTD 192,Chợ Tam Hải,Ô sơn,Quận Thủ Đức,Phường Bình Chiểu,251B,Quốc lộ 1,,Đang khai thác,106.744291,10.873373,CTH 251B Ql1,"05, 19, 33, 60-1",5,1
345,QTD 193,Hồ Bơi,Trụ dừng,Quận Thủ Đức,Phường Bình Chiểu,179,Quốc lộ 1,,Đang khai thác,106.739913,10.872177,HB 179 Ql1,"05, 19, 33, 60-1",5,1
348,QTD 194,Chợ Tam Bình,Trụ dừng,Quận Thủ Đức,Phường Bình Chiểu,Đối diện Bưu điện Tam Bình,Quốc lộ 1,,Đang khai thác,106.734474,10.870828,CTB DdBdTB Ql1,"05, 19, 33, 60-1",5,1
347,QTD 195,Chợ đầu mối nông sản Thủ Đức,Nhà chờ,Quận Thủ Đức,Phường Tam Bình,Chợ đầu mối nông sản Thủ Đức,Quốc lộ 1,,Đang khai thác,106.729158,10.86812,CdmnsTD CdmnsTD Ql1,"05, 19, 29, 33, 60-1, 89",5,1
349,QTD 214,Ngã 4 Bình Phước,Trụ dừng,Quận Thủ Đức,Phường Hiệp Bình Phước,779,Quốc lộ 13,,Đang khai thác,106.72451,10.863809,N4BP 779 Ql13,"05, 19, 61-6, 89, 91",5,1
350,QTD 215,Hồ bơi Mèo Mun,Trụ dừng,Quận Thủ Đức,Phường Hiệp Bình Phước,797 (Đối diện 782),Quốc lộ 13,,Đang khai thác,106.724396,10.861345,HbMM 797(d782) Ql13,"05, 19, 61-6, 89",5,1
353,QTD 216,UBND P.Hiệp Bình Phước,Trụ dừng,Quận Thủ Đức,,715,Quốc lộ 13,,Đang khai thác,106.723782,10.859791,UPBP 715 Ql13,"05, 19, 61-6, 89",5,1
351,QTD 217,Trạm y tế P. Hiệp Bình Phước,Trụ dừng,Quận Thủ Đức,,645,Quốc lộ 13,,Đang khai thác,106.722343,10.856024,TytPHBP 645 Ql13,"05, 19, 61-6, 89",5,1
355,QTD 218,Ngã 3 Đường Hiệp Bình,Trụ dừng,Quận Thủ Đức,,607,Quốc lộ 13,,Đang khai thác,106.720719,10.852579,N3DHB 607 Ql13,"05, 19, 61-6, 89",5,1
352,QTD 219,Ngã 3 Hiệp Bình,Trụ dừng,Quận Thủ Đức,Phường Hiệp Bình Phước,Đối diện 566 (557A),Quốc lộ 13,,Đang khai thác,106.718346,10.848727,N3HB Dd566( Ql13,"05, 19, 61-6",5,1
358,QTD 220,Cân Nhơn Hòa,Trụ dừng,Quận Thủ Đức,Phường Hiệp Bình Phước,445 - 447,Quốc lộ 13,,Đang khai thác,106.718086,10.844473,CNH 445-447 Ql13,"05, 19, 61-6, 91",5,1
354,QTD 221,Đường số 4,Trụ dừng,Quận Thủ Đức,Phường Hiệp Bình Phước,385-387,Quốc lộ 13,,Đang khai thác,106.716858,10.84109,Ds4 385-387 Ql13,"05, 19, 61-6",5,1
359,QTD 222,Đường số 3,Trụ dừng,Quận Thủ Đức,Phường Hiệp Bình Phước,327-329,Quốc lộ 13,,Đang khai thác,106.714915,10.83877,Ds3 327-329 Ql13,"05, 19, 61-6",5,1
356,QTD 223,Cầu Ông Dầu,Trụ dừng,Quận Thủ Đức,Phường Hiệp Bình Phước,261,Quốc lộ 13,,Đang khai thác,106.713745,10.835822,COD 261 Ql13,"05, 19, 61-6",5,1
357,QTD 224,Trạm xăng dầu,Trụ dừng,Quận Thủ Đức,Phường Hiệp Bình Chánh,173-175,Quốc lộ 13,,Đang khai thác,106.71389,10.83294,Txd 173-175 Ql13,"05, 19, 61-6",5,1
360,QTD 225,UBND P.Hiệp Bình Chánh,Nhà chờ,Quận Thủ Đức,Phường Hiệp Bình Chánh,328/5 (Đại học Luật),Quốc lộ 13,,Đang khai thác,106.714027,10.830039,UPBC 328/5(hL Ql13,"05, 19, 61-6, 91",5,1
361,QBTH 038,Cổng vào-Bến xe Miền Đông,Nhà chờ,Quận Bình Thạnh,,78/3,Đinh Bộ Lĩnh,,Đang khai thác,106.711257,10.816661,CvxMD 78/3 DBL,"05, 08, 14, 146, 19, 43, 60-3, 60-4, 61-6, 91, 93",5,1
362,QBTH 039,Ngã Tư Nguyễn Xí,Trụ dừng,Quận Bình Thạnh,,291-293,Đinh Bộ Lĩnh,,Đang khai thác,106.709223,10.812625,NTNX 291-293 DBL,"05, 08, 146, 24, 43, 60-3, 60-4, 61-6, 93",5,1
363,QBTH 040,Ngã Tư Chu Văn An,Trụ dừng,Quận Bình Thạnh,,183,Đinh Bộ Lĩnh,,Đang khai thác,106.709143,10.809759,NTCVA 183 DBL,"05, 08, 146, 24, 43, 60-3, 60-4, 61-6, 93",5,1
364,QBTH 041,Cầu Đinh Bộ Lĩnh,Trụ dừng,Quận Bình Thạnh,,85,Đinh Bộ Lĩnh,,Đang khai thác,106.709341,10.806908,CDBL 85 DBL,"05, 08, 146, 24, 43, 60-3, 60-4, 61-6, 93",5,1
365,QBTH 042,Trạm xăng dầu,Trụ dừng,Quận Bình Thạnh,,17,Đinh Bộ Lĩnh,,Đang khai thác,106.709395,10.804421,Txd 17 DBL,"05, 08, 146, 24, 43, 60-3, 60-4, 61-6, 93",5,1
366,QBTH 010,Chợ Hàng Xanh,Trụ dừng,Quận Bình Thạnh,,39,Bạch Đằng,,Đang khai thác,106.710511,10.802793,CHX 39 BD,"05, 08, 104, 146, 24, 43, 55, 60-3, 60-4, 91",5,1
368,QBTH 130,Trường trung học Gia Định,Trụ dừng,Quận Bình Thạnh,,221,Xô Viết Nghệ Tĩnh,,Đang khai thác,106.711037,10.79981,TthGD 221 XVNT,"05, 06, 14, 19, 44, 52, 61-6",5,1
367,QBTH 129,Trường Tiểu học Hồng Hà,Nhà chờ,Quận Bình Thạnh,,153,Xô Viết Nghệ Tĩnh,,Đang khai thác,106.710591,10.797328,TThHH 153 XVNT,"05, 06, 14, 19, 44, 52, 61-6",5,1
369,QBTH 128,Ngã ba Nguyễn Cửu Vân,Trụ dừng,Quận Bình Thạnh,,151,Xô Viết Nghệ Tĩnh,,Đang khai thác,106.709443,10.79511,NbNCV 151 XVNT,"05, 06, 14, 19, 52, 61-6",5,1
373,QBTH 127,Nhà thờ Thị Nghè,Trụ dừng,Quận Bình Thạnh,,79,Xô Viết Nghệ Tĩnh,,Đang khai thác,106.708054,10.793661,NtTN 79 XVNT,"05, 06, 14, 19, 52, 61-6",5,1
370,Q1 098,Thảo Cầm Viên,Nhà chờ,Quận 1,,2A,Nguyễn Thị Minh Khai,,Đang khai thác,106.705259,10.790694,TCV 2A NTMK,"05, 06, 14, 19, 52, 61-6",5,1
374,Q1 099,Đài truyền hình,Nhà chờ,Quận 1,,Đối diện 9,Nguyễn Thị Minh Khai,,Đang khai thác,106.702011,10.787157,Dth Dd9 NTMK,"05, 06, 14, 19, 45, 61-6",5,1
371,Q1 100,nhà thờ Mạc Ti Nho,Nhà chờ,Quận 1,Phường Đa Kao,16A,Nguyễn Thị Minh Khai,,Đang khai thác,106.701294,10.786397,ntMTN 16A NTMK,"05, 06, 14, 45, 52",5,1
372,Q1 101,Phùng Khắc Khoan,Trụ dừng,Quận 1,,2 - 4,Phùng Khắc Khoan,,Đang khai thác,106.698586,10.784048,PKK 2-4 PKK,"05, 06, 14, 52",5,1
378,Q3 085,Hồ Con Rùa,Trụ dừng,Quận 3,,24 - 26,Trần Cao Vân,,Đang khai thác,106.696411,10.783314,HCR 24-26 TCV,"05, 06, 14, 52",5,1
375,Q3 105,Sân Phan Đình Phùng,Nhà chờ,Quận 3,,8,Võ Văn Tần,Có,Đang khai thác,106.694402,10.781172,SPDP 8 VVT,"05, 06, 14",5,1
377,Q3 106,Bảo tàng chứng tích chiến tranh,Nhà chờ,Quận 3,,28,Võ Văn Tần,Có,Đang khai thác,106.69254,10.779143,Btctct 28 VVT,"05, 06, 120, 14, DL01",5,1
376,Q3 107,Trần Quốc Thảo,Nhà chờ,Quận 3,Phường 06,44,Võ Văn Tần,,Đang khai thác,106.691365,10.777889,TQT 44 VVT,"05, 06, 14",5,1
379,Q3 108,Đại học Mở thành phố HCM,Trụ dừng,Quận 3,,62,Võ Văn Tần,,Đang khai thác,106.69004,10.776418,DhMtpH 62 VVT,"05, 06, 14",5,1
381,Q3 005,Nguyễn Thị Minh Khai,Trụ dừng,Quận 3,,17,Bà Huyện Thanh Quan,,Đang khai thác,106.690186,10.775102,NTMK 17 BHTQ,"05, 06, 14",5,1
380,Q3 069,Cách Mạng tháng 8,Trụ dừng,Quận 3,,284,Nguyễn Thị Minh Khai,,Đang khai thác,106.689021,10.77342,CMt8 284 NTMK,"05, 06, 14, 38",5,1
383,Q3 070,Tôn Thất Tùng,Trụ dừng,Quận 3,,414,Nguyễn Thị Minh Khai,,Đang khai thác,106.686634,10.77079,TTT 414 NTMK,"05, 06, 14, 38",5,1
382,Q3 071,Bệnh viện Từ Dũ,Trụ dừng,Quận 3,,436,Nguyễn Thị Minh Khai,,Đang khai thác,106.684883,10.768946,BvTD 436 NTMK,"05, 06, 14, 38",5,1
89,Q3 072,Trung ương Hội Chữ thập đỏ TP,Nhà chờ,Quận 3,,464 - 466,Nguyễn Thị Minh Khai,,Đang khai thác,106.683657,10.767723,TuHCtdT 464-466 NTMK,"05, 06, 14, 27, 38, 53, 70-3",5,1
90,Q3 073,Nhà sách Minh Khai,Trụ dừng,Quận 3,,488,Nguyễn Thị Minh Khai,,Đang khai thác,106.68238,10.766395,NsMK 488 NTMK,"05, 06, 14, 27, 38, 53",5,1
385,Q10 079,Công viên Âu Lạc,Nhà chờ,Quận 10,,Đối diện số 1,Hùng Vương,,Đang khai thác,106.680443,10.764877,CvAL Dds1 HV,"05, 70-3",5,1
384,Q10 080,Ngã tư Trần Bình Trọng,Nhà chờ,Quận 10,,Kế số 2,Hùng Vương,,Đang khai thác,106.678963,10.763913,NtTBT Ks2 HV,"05, 53",5,1
387,Q10 081,Ngã tư Lê Hồng Phong,Ô sơn,Quận 10,,88,Hùng Vương,,Đã hủy,106.676967,10.762606,NtLHP 88 HV,"05, 70-3",5,1
386,Q10 021,Chợ Lê Hồng Phong,Trụ dừng,Quận 10,,400,Lê Hồng Phong,,Đang khai thác,106.67569,10.764429,CLHP 400 LHP,"05, 91",5,1
388,Q10 027,Hòa Hảo,Trụ dừng,Quận 10,,222,Ngô Gia Tự,,Đang khai thác,106.671168,10.763286,HH 222 NGT,"05, 150",5,1
